{
"type": "FeatureCollection",
"name": "cool",
"crs": { "type": "name", "properties": { "name": "urn:ogc:def:crs:OGC:1.3:CRS84" } },
"features": [
{ "type": "Feature", "properties": { "fid": 3235, "시설명": "선교1차우방아이유쉘경로당", "시설유형": "특정계층이용시설", "주소": "광주광역시 동구 선교로 38-30 (선교동)", "시간": null, "구분": "특정인 이용가능" }, "geometry": { "type": "Point", "coordinates": [ 126.951413319535988, 35.089120950071084 ] } },
{ "type": "Feature", "properties": { "fid": 3264, "시설명": "선교1차우방아이유쉘경로당", "시설유형": "특정계층이용시설", "주소": "광주광역시 동구 선교로 38-30 (선교동)", "시간": null, "구분": "특정인 이용가능" }, "geometry": { "type": "Point", "coordinates": [ 126.951413319535988, 35.089120950071084 ] } },
{ "type": "Feature", "properties": { "fid": 3236, "시설명": "진아리채2차아파트경로당", "시설유형": "특정계층이용시설", "주소": "광주광역시 동구 육판서길 17 (내남동, 내남지구2차진아리채)", "시간": null, "구분": "특정인 이용가능" }, "geometry": { "type": "Point", "coordinates": [ 126.942081382993905, 35.089541487116385 ] } },
{ "type": "Feature", "properties": { "fid": 3267, "시설명": "진아리채2차아파트경로당", "시설유형": "특정계층이용시설", "주소": "광주광역시 동구 육판서길 17 (내남동, 내남지구2차진아리채)", "시간": null, "구분": "특정인 이용가능" }, "geometry": { "type": "Point", "coordinates": [ 126.942081382993905, 35.089541487116385 ] } },
{ "type": "Feature", "properties": { "fid": 3234, "시설명": "선교2차우방아이유쉘리포레경로당", "시설유형": "특정계층이용시설", "주소": "광주광역시 동구 선교로 38-33 (선교동)", "시간": null, "구분": "특정인 이용가능" }, "geometry": { "type": "Point", "coordinates": [ 126.953855481074058, 35.089630635121004 ] } },
{ "type": "Feature", "properties": { "fid": 3263, "시설명": "선교2차우방아이유쉘리포레경로당", "시설유형": "특정계층이용시설", "주소": "광주광역시 동구 선교로 38-33 (선교동)", "시간": null, "구분": "특정인 이용가능" }, "geometry": { "type": "Point", "coordinates": [ 126.953855481074058, 35.089630635121004 ] } },
{ "type": "Feature", "properties": { "fid": 3233, "시설명": "교동경로당", "시설유형": "특정계층이용시설", "주소": "광주광역시 동구 선교로 35", "시간": null, "구분": "특정인 이용가능" }, "geometry": { "type": "Point", "coordinates": [ 126.950843005981042, 35.090252844066967 ] } },
{ "type": "Feature", "properties": { "fid": 3261, "시설명": "교동경로당", "시설유형": "특정계층이용시설", "주소": "광주광역시 동구 선교로 35", "시간": null, "구분": "특정인 이용가능" }, "geometry": { "type": "Point", "coordinates": [ 126.950843005981042, 35.090252844066967 ] } },
{ "type": "Feature", "properties": { "fid": 3239, "시설명": "내지경로당", "시설유형": "특정계층이용시설", "주소": "광주광역시 동구 육판서길 180-1 (내남동)", "시간": null, "구분": "특정인 이용가능" }, "geometry": { "type": "Point", "coordinates": [ 126.929775132599588, 35.090296868725716 ] } },
{ "type": "Feature", "properties": { "fid": 3265, "시설명": "내지경로당", "시설유형": "특정계층이용시설", "주소": "광주광역시 동구 육판서길 180-1 (내남동)", "시간": null, "구분": "특정인 이용가능" }, "geometry": { "type": "Point", "coordinates": [ 126.929775132599588, 35.090296868725716 ] } },
{ "type": "Feature", "properties": { "fid": 3238, "시설명": "진아리채1차아파트경로당", "시설유형": "특정계층이용시설", "주소": "광주광역시 동구 육판서길 16 (내남동, 내남지구1차진아리채)", "시간": null, "구분": "특정인 이용가능" }, "geometry": { "type": "Point", "coordinates": [ 126.94067953960942, 35.091292760069088 ] } },
{ "type": "Feature", "properties": { "fid": 3272, "시설명": "진아리채1차아파트경로당", "시설유형": "특정계층이용시설", "주소": "광주광역시 동구 육판서길 16 (내남동, 내남지구1차진아리채)", "시간": null, "구분": "특정인 이용가능" }, "geometry": { "type": "Point", "coordinates": [ 126.94067953960942, 35.091292760069088 ] } },
{ "type": "Feature", "properties": { "fid": 3232, "시설명": "선동경로당", "시설유형": "특정계층이용시설", "주소": "광주광역시 동구 선교로 77-6", "시간": null, "구분": "특정인 이용가능" }, "geometry": { "type": "Point", "coordinates": [ 126.955381753462333, 35.0915172511395 ] } },
{ "type": "Feature", "properties": { "fid": 3262, "시설명": "선동경로당", "시설유형": "특정계층이용시설", "주소": "광주광역시 동구 선교로 77-6", "시간": null, "구분": "특정인 이용가능" }, "geometry": { "type": "Point", "coordinates": [ 126.955381753462333, 35.0915172511395 ] } },
{ "type": "Feature", "properties": { "fid": 3237, "시설명": "남계경로당", "시설유형": "특정계층이용시설", "주소": "광주광역시 동구 남계길 51", "시간": null, "구분": "특정인 이용가능" }, "geometry": { "type": "Point", "coordinates": [ 126.938991753497419, 35.093864470399687 ] } },
{ "type": "Feature", "properties": { "fid": 3268, "시설명": "남계경로당", "시설유형": "특정계층이용시설", "주소": "광주광역시 동구 남계길 51", "시간": null, "구분": "특정인 이용가능" }, "geometry": { "type": "Point", "coordinates": [ 126.938991753497419, 35.093864470399687 ] } },
{ "type": "Feature", "properties": { "fid": 3283, "시설명": "용연경로당", "시설유형": "특정계층이용시설", "주소": "광주광역시 동구 용연길 25 (용연동)", "시간": null, "구분": "특정인 이용가능" }, "geometry": { "type": "Point", "coordinates": [ 126.964652031306414, 35.094297756783327 ] } },
{ "type": "Feature", "properties": { "fid": 3273, "시설명": "용연경로당", "시설유형": "특정계층이용시설", "주소": "광주광역시 동구 용연길 25 (용연동)", "시간": null, "구분": "특정인 이용가능" }, "geometry": { "type": "Point", "coordinates": [ 126.964652031306414, 35.094297756783327 ] } },
{ "type": "Feature", "properties": { "fid": 3961, "시설명": "봉선중앙경로당", "시설유형": "특정계층이용시설", "주소": "광주광역시 남구  봉선중1길  2   (봉선동)", "시간": null, "구분": "특정인 이용가능" }, "geometry": { "type": "Point", "coordinates": [ 126.911244606400615, 35.129644821943835 ] } },
{ "type": "Feature", "properties": { "fid": 3944, "시설명": "봉선중앙경로당", "시설유형": "특정계층이용시설", "주소": "광주광역시 남구  봉선중1길  2   (봉선동)", "시간": null, "구분": "특정인 이용가능" }, "geometry": { "type": "Point", "coordinates": [ 126.911244606400615, 35.129644821943835 ] } },
{ "type": "Feature", "properties": { "fid": 3951, "시설명": "라인하이츠경로당", "시설유형": "특정계층이용시설", "주소": "광주광역시 남구 대남대로159번길 40 (봉선동)", "시간": null, "구분": "특정인 이용가능" }, "geometry": { "type": "Point", "coordinates": [ 126.90793898597191, 35.129718497443939 ] } },
{ "type": "Feature", "properties": { "fid": 3964, "시설명": "라인하이츠경로당", "시설유형": "특정계층이용시설", "주소": "광주광역시 남구 대남대로159번길 40 (봉선동)", "시간": null, "구분": "특정인 이용가능" }, "geometry": { "type": "Point", "coordinates": [ 126.90793898597191, 35.129718497443939 ] } },
{ "type": "Feature", "properties": { "fid": 3942, "시설명": "라인광장2,3차경로당", "시설유형": "특정계층이용시설", "주소": "광주광역시 남구  봉선중앙로  105 , 상가 (봉선동, 라인광장아파트)", "시간": null, "구분": "특정인 이용가능" }, "geometry": { "type": "Point", "coordinates": [ 126.909987401375844, 35.12980667128037 ] } },
{ "type": "Feature", "properties": { "fid": 3945, "시설명": "라인광장1차경로당", "시설유형": "특정계층이용시설", "주소": "광주광역시 남구 봉선중앙로 103", "시간": null, "구분": "특정인 이용가능" }, "geometry": { "type": "Point", "coordinates": [ 126.909987401375844, 35.12980667128037 ] } },
{ "type": "Feature", "properties": { "fid": 3960, "시설명": "라인광장1차경로당", "시설유형": "특정계층이용시설", "주소": "광주광역시 남구 봉선중앙로 103", "시간": null, "구분": "특정인 이용가능" }, "geometry": { "type": "Point", "coordinates": [ 126.909987401375844, 35.12980667128037 ] } },
{ "type": "Feature", "properties": { "fid": 3963, "시설명": "라인광장2,3차경로당", "시설유형": "특정계층이용시설", "주소": "광주광역시 남구  봉선중앙로  105 , 상가 (봉선동, 라인광장아파트)", "시간": null, "구분": "특정인 이용가능" }, "geometry": { "type": "Point", "coordinates": [ 126.909987401375844, 35.12980667128037 ] } },
{ "type": "Feature", "properties": { "fid": 3948, "시설명": "봉선모아1단지2차경로당", "시설유형": "특정계층이용시설", "주소": "광주광역시 남구 봉선중앙로 115", "시간": null, "구분": "특정인 이용가능" }, "geometry": { "type": "Point", "coordinates": [ 126.90987608915971, 35.131036730512783 ] } },
{ "type": "Feature", "properties": { "fid": 3962, "시설명": "모아1차경로당", "시설유형": "특정계층이용시설", "주소": "광주광역시 남구  봉선중앙로  115   (봉선동)", "시간": null, "구분": "특정인 이용가능" }, "geometry": { "type": "Point", "coordinates": [ 126.90987608915971, 35.131036730512783 ] } },
{ "type": "Feature", "properties": { "fid": 3954, "시설명": "봉선모아1단지2차경로당", "시설유형": "특정계층이용시설", "주소": "광주광역시 남구 봉선중앙로 115", "시간": null, "구분": "특정인 이용가능" }, "geometry": { "type": "Point", "coordinates": [ 126.90987608915971, 35.131036730512783 ] } },
{ "type": "Feature", "properties": { "fid": 3943, "시설명": "모아1차경로당", "시설유형": "특정계층이용시설", "주소": "광주광역시 남구  봉선중앙로  115   (봉선동)", "시간": null, "구분": "특정인 이용가능" }, "geometry": { "type": "Point", "coordinates": [ 126.90987608915971, 35.131036730512783 ] } },
{ "type": "Feature", "properties": { "fid": 3978, "시설명": "봉선라인경로당", "시설유형": "특정계층이용시설", "주소": "광주광역시 남구 봉선로 91", "시간": null, "구분": "특정인 이용가능" }, "geometry": { "type": "Point", "coordinates": [ 126.907232787489704, 35.126022764918829 ] } },
{ "type": "Feature", "properties": { "fid": 3986, "시설명": "봉선라인경로당", "시설유형": "특정계층이용시설", "주소": "광주광역시 남구 봉선로 91", "시간": null, "구분": "특정인 이용가능" }, "geometry": { "type": "Point", "coordinates": [ 126.907232787489704, 35.126022764918829 ] } },
{ "type": "Feature", "properties": { "fid": 3970, "시설명": "제일풍경채경로당", "시설유형": "특정계층이용시설", "주소": "광주광역시 남구 제석로80번길 5 (봉선동, 제일풍경채 ELITE PARK)", "시간": null, "구분": "특정인 이용가능" }, "geometry": { "type": "Point", "coordinates": [ 126.907814069585939, 35.122278937528606 ] } },
{ "type": "Feature", "properties": { "fid": 4001, "시설명": "제일풍경채경로당", "시설유형": "특정계층이용시설", "주소": "광주광역시 남구 제석로80번길 5 (봉선동, 제일풍경채 ELITE PARK)", "시간": null, "구분": "특정인 이용가능" }, "geometry": { "type": "Point", "coordinates": [ 126.907814069585939, 35.122278937528606 ] } },
{ "type": "Feature", "properties": { "fid": 4236, "시설명": "진아리채3차경로당", "시설유형": "특정계층이용시설", "주소": "광주광역시 남구 화산로 115 (진월동, 진아리채)", "시간": null, "구분": "특정인 이용가능" }, "geometry": { "type": "Point", "coordinates": [ 126.908382675925637, 35.115306432531938 ] } },
{ "type": "Feature", "properties": { "fid": 3958, "시설명": "애향경로당", "시설유형": "특정계층이용시설", "주소": "광주광역시 남구 봉선1로26번길 7-8", "시간": null, "구분": "특정인 이용가능" }, "geometry": { "type": "Point", "coordinates": [ 126.908597146893712, 35.126934915695244 ] } },
{ "type": "Feature", "properties": { "fid": 3939, "시설명": "애향경로당", "시설유형": "특정계층이용시설", "주소": "광주광역시 남구 봉선1로26번길 7-8", "시간": null, "구분": "특정인 이용가능" }, "geometry": { "type": "Point", "coordinates": [ 126.908597146893712, 35.126934915695244 ] } },
{ "type": "Feature", "properties": { "fid": 3977, "시설명": "봉선라인2차경로당", "시설유형": "특정계층이용시설", "주소": "광주광역시 남구 제석로80번길 20 (봉선동)", "시간": null, "구분": "특정인 이용가능" }, "geometry": { "type": "Point", "coordinates": [ 126.909256986113292, 35.120965610654224 ] } },
{ "type": "Feature", "properties": { "fid": 3988, "시설명": "봉선라인2차경로당", "시설유형": "특정계층이용시설", "주소": "광주광역시 남구 제석로80번길 20 (봉선동)", "시간": null, "구분": "특정인 이용가능" }, "geometry": { "type": "Point", "coordinates": [ 126.909256986113292, 35.120965610654224 ] } },
{ "type": "Feature", "properties": { "fid": 3969, "시설명": "금호2차경로당", "시설유형": "특정계층이용시설", "주소": "광주광역시 남구 봉선로 134", "시간": null, "구분": "특정인 이용가능" }, "geometry": { "type": "Point", "coordinates": [ 126.909417424846112, 35.122470361355148 ] } },
{ "type": "Feature", "properties": { "fid": 3998, "시설명": "금호2차경로당", "시설유형": "특정계층이용시설", "주소": "광주광역시 남구 봉선로 134", "시간": null, "구분": "특정인 이용가능" }, "geometry": { "type": "Point", "coordinates": [ 126.909417424846112, 35.122470361355148 ] } },
{ "type": "Feature", "properties": { "fid": 3992, "시설명": "봉선라인3차경로당", "시설유형": "특정계층이용시설", "주소": "광주광역시 남구 제석로80번길 22-3 (봉선동, 라인아파트)", "시간": null, "구분": "특정인 이용가능" }, "geometry": { "type": "Point", "coordinates": [ 126.910052814422826, 35.12082650844053 ] } },
{ "type": "Feature", "properties": { "fid": 3973, "시설명": "봉선라인3차경로당", "시설유형": "특정계층이용시설", "주소": "광주광역시 남구 제석로80번길 22-3 (봉선동, 라인아파트)", "시간": null, "구분": "특정인 이용가능" }, "geometry": { "type": "Point", "coordinates": [ 126.910052814422826, 35.12082650844053 ] } },
{ "type": "Feature", "properties": { "fid": 3971, "시설명": "봉선한국아델리움3차경로당", "시설유형": "특정계층이용시설", "주소": "광주광역시 남구 제석로80번길 36", "시간": null, "구분": "특정인 이용가능" }, "geometry": { "type": "Point", "coordinates": [ 126.910953640471249, 35.120021260703147 ] } },
{ "type": "Feature", "properties": { "fid": 4000, "시설명": "봉선한국아델리움3차경로당", "시설유형": "특정계층이용시설", "주소": "광주광역시 남구 제석로80번길 36", "시간": null, "구분": "특정인 이용가능" }, "geometry": { "type": "Point", "coordinates": [ 126.910953640471249, 35.120021260703147 ] } },
{ "type": "Feature", "properties": { "fid": 3999, "시설명": "금호타운1차경로당", "시설유형": "특정계층이용시설", "주소": "광주광역시 남구 봉선로133번길 4", "시간": null, "구분": "특정인 이용가능" }, "geometry": { "type": "Point", "coordinates": [ 126.911106010951372, 35.124186770845782 ] } },
{ "type": "Feature", "properties": { "fid": 3982, "시설명": "금호타운1차경로당", "시설유형": "특정계층이용시설", "주소": "광주광역시 남구 봉선로133번길 4", "시간": null, "구분": "특정인 이용가능" }, "geometry": { "type": "Point", "coordinates": [ 126.911106010951372, 35.124186770845782 ] } },
{ "type": "Feature", "properties": { "fid": 4269, "시설명": "진아리채3차경로당", "시설유형": "특정계층이용시설", "주소": "광주광역시 남구 화산로 115 (진월동, 진아리채)", "시간": null, "구분": "특정인 이용가능" }, "geometry": { "type": "Point", "coordinates": [ 126.908382675925637, 35.115306432531938 ] } },
{ "type": "Feature", "properties": { "fid": 4277, "시설명": "송화6휴먼시아경로당(분적)", "시설유형": "특정계층이용시설", "주소": "광주광역시 남구 노대실로 49 (노대동, 송화 레이크 포레)", "시간": null, "구분": "특정인 이용가능" }, "geometry": { "type": "Point", "coordinates": [ 126.907837475961529, 35.10484460738224 ] } },
{ "type": "Feature", "properties": { "fid": 4283, "시설명": "송화마을5단지휴먼시아경로당", "시설유형": "특정계층이용시설", "주소": "광주광역시 남구 노대실로 33", "시간": null, "구분": "특정인 이용가능" }, "geometry": { "type": "Point", "coordinates": [ 126.907805957669353, 35.107228386811556 ] } },
{ "type": "Feature", "properties": { "fid": 4302, "시설명": "송화마을5단지휴먼시아경로당(레이크힐)", "시설유형": "특정계층이용시설", "주소": "광주광역시 남구 노대실로 33", "시간": null, "구분": "특정인 이용가능" }, "geometry": { "type": "Point", "coordinates": [ 126.907805957669353, 35.107228386811556 ] } },
{ "type": "Feature", "properties": { "fid": 4304, "시설명": "송화6휴먼시아경로당(분적)", "시설유형": "특정계층이용시설", "주소": "광주광역시 남구 노대실로 49 (노대동, 송화 레이크 포레)", "시간": null, "구분": "특정인 이용가능" }, "geometry": { "type": "Point", "coordinates": [ 126.907837475961529, 35.10484460738224 ] } },
{ "type": "Feature", "properties": { "fid": 4012, "시설명": "광주공원경로당", "시설유형": "특정계층이용시설", "주소": "광주광역시 남구 서오층석탑2길 5", "시간": null, "구분": "특정인 이용가능" }, "geometry": { "type": "Point", "coordinates": [ 126.907749640282049, 35.146392057702542 ] } },
{ "type": "Feature", "properties": { "fid": 4034, "시설명": "광주공원경로당", "시설유형": "특정계층이용시설", "주소": "광주광역시 남구 서오층석탑2길 5", "시간": null, "구분": "특정인 이용가능" }, "geometry": { "type": "Point", "coordinates": [ 126.907749640282049, 35.146392057702542 ] } },
{ "type": "Feature", "properties": { "fid": 4016, "시설명": "광주공원노인복지관", "시설유형": "특정계층이용시설", "주소": "광주광역시 남구 서오층석탑2길 17 (광주공원노인복지회관)", "시간": null, "구분": "특정인 이용가능" }, "geometry": { "type": "Point", "coordinates": [ 126.907922883078641, 35.147397629881532 ] } },
{ "type": "Feature", "properties": { "fid": 4024, "시설명": "광주공원노인복지관", "시설유형": "특정계층이용시설", "주소": "광주광역시 남구 서오층석탑2길 17 (광주공원노인복지회관)", "시간": null, "구분": "특정인 이용가능" }, "geometry": { "type": "Point", "coordinates": [ 126.907922883078641, 35.147397629881532 ] } },
{ "type": "Feature", "properties": { "fid": 4005, "시설명": "사직동행정복지센터", "시설유형": "공공시설", "주소": "광주광역시 남구 중앙로95번길 14 (서동)", "시간": null, "구분": "누구나 이용가능" }, "geometry": { "type": "Point", "coordinates": [ 126.907986960105688, 35.145739602891254 ] } },
{ "type": "Feature", "properties": { "fid": 4006, "시설명": "사직동행정복지센터", "시설유형": "공공시설", "주소": "광주광역시 남구 중앙로95번길 14 (서동)", "시간": null, "구분": "누구나 이용가능" }, "geometry": { "type": "Point", "coordinates": [ 126.907986960105688, 35.145739602891254 ] } },
{ "type": "Feature", "properties": { "fid": 4023, "시설명": "공원경로당", "시설유형": "특정계층이용시설", "주소": "광주광역시 남구 천변좌로338번길 7", "시간": null, "구분": "특정인 이용가능" }, "geometry": { "type": "Point", "coordinates": [ 126.908388118459257, 35.148237629218542 ] } },
{ "type": "Feature", "properties": { "fid": 4022, "시설명": "삼명경로당", "시설유형": "특정계층이용시설", "주소": "광주광역시 남구 천변좌로338번길 7", "시간": null, "구분": "특정인 이용가능" }, "geometry": { "type": "Point", "coordinates": [ 126.908388118459257, 35.148237629218542 ] } },
{ "type": "Feature", "properties": { "fid": 4017, "시설명": "공원경로당", "시설유형": "특정계층이용시설", "주소": "광주광역시 남구 천변좌로338번길 7", "시간": null, "구분": "특정인 이용가능" }, "geometry": { "type": "Point", "coordinates": [ 126.908388118459257, 35.148237629218542 ] } },
{ "type": "Feature", "properties": { "fid": 4009, "시설명": "삼명경로당", "시설유형": "특정계층이용시설", "주소": "광주광역시 남구 천변좌로338번길 7", "시간": null, "구분": "특정인 이용가능" }, "geometry": { "type": "Point", "coordinates": [ 126.908388118459257, 35.148237629218542 ] } },
{ "type": "Feature", "properties": { "fid": 4029, "시설명": "서1동경로당", "시설유형": "특정계층이용시설", "주소": "광주광역시 남구 제중로134번길 14-5", "시간": null, "구분": "특정인 이용가능" }, "geometry": { "type": "Point", "coordinates": [ 126.908438429131991, 35.143551339189052 ] } },
{ "type": "Feature", "properties": { "fid": 4013, "시설명": "서1동경로당", "시설유형": "특정계층이용시설", "주소": "광주광역시 남구 제중로134번길 14-5", "시간": null, "구분": "특정인 이용가능" }, "geometry": { "type": "Point", "coordinates": [ 126.908438429131991, 35.143551339189052 ] } },
{ "type": "Feature", "properties": { "fid": 4106, "시설명": "대흥백운스카이1차경로당", "시설유형": "특정계층이용시설", "주소": "광주광역시 남구 백운로82번길 10 (백운동, 대흥 백운스카이1차아파트)", "시간": null, "구분": "특정인 이용가능" }, "geometry": { "type": "Point", "coordinates": [ 126.907911609198408, 35.140633078931096 ] } },
{ "type": "Feature", "properties": { "fid": 4107, "시설명": "백운신천경로당", "시설유형": "특정계층이용시설", "주소": "광주광역시 남구 백운로44번길 7", "시간": null, "구분": "특정인 이용가능" }, "geometry": { "type": "Point", "coordinates": [ 126.907765328303384, 35.13803731050627 ] } },
{ "type": "Feature", "properties": { "fid": 4126, "시설명": "백운신천경로당", "시설유형": "특정계층이용시설", "주소": "광주광역시 남구 백운로44번길 7", "시간": null, "구분": "특정인 이용가능" }, "geometry": { "type": "Point", "coordinates": [ 126.907765328303384, 35.13803731050627 ] } },
{ "type": "Feature", "properties": { "fid": 4127, "시설명": "대흥백운스카이1차경로당", "시설유형": "특정계층이용시설", "주소": "광주광역시 남구 백운로82번길 10 (백운동, 대흥 백운스카이1차아파트)", "시간": null, "구분": "특정인 이용가능" }, "geometry": { "type": "Point", "coordinates": [ 126.907911609198408, 35.140633078931096 ] } },
{ "type": "Feature", "properties": { "fid": 4522, "시설명": "역전광주은행", "시설유형": "생활밀착민간시설", "주소": "광주광역시 북구 경열로 255", "시간": null, "구분": "누구나 이용가능" }, "geometry": { "type": "Point", "coordinates": [ 126.907369015776624, 35.162143803154471 ] } },
{ "type": "Feature", "properties": { "fid": 4519, "시설명": "역전광주은행", "시설유형": "생활밀착민간시설", "주소": "광주광역시 북구 경열로 255", "시간": null, "구분": "누구나 이용가능" }, "geometry": { "type": "Point", "coordinates": [ 126.907369015776624, 35.162143803154471 ] } },
{ "type": "Feature", "properties": { "fid": 4456, "시설명": "미리내경로당", "시설유형": "특정계층이용시설", "주소": "광주광역시 북구 경열로234번길 19", "시간": null, "구분": "특정인 이용가능" }, "geometry": { "type": "Point", "coordinates": [ 126.907984335945542, 35.160091780138565 ] } },
{ "type": "Feature", "properties": { "fid": 4449, "시설명": "미리내경로당", "시설유형": "특정계층이용시설", "주소": "광주광역시 북구 경열로234번길 19", "시간": null, "구분": "특정인 이용가능" }, "geometry": { "type": "Point", "coordinates": [ 126.907984335945542, 35.160091780138565 ] } },
{ "type": "Feature", "properties": { "fid": 3887, "시설명": "양림1휴먼시아경로당", "시설유형": "특정계층이용시설", "주소": "광주광역시 남구 제중로 11", "시간": null, "구분": "특정인 이용가능" }, "geometry": { "type": "Point", "coordinates": [ 126.913706760860094, 35.135654437845467 ] } },
{ "type": "Feature", "properties": { "fid": 3879, "시설명": "양림1휴먼시아경로당", "시설유형": "특정계층이용시설", "주소": "광주광역시 남구 제중로 11", "시간": null, "구분": "특정인 이용가능" }, "geometry": { "type": "Point", "coordinates": [ 126.913706760860094, 35.135654437845467 ] } },
{ "type": "Feature", "properties": { "fid": 3905, "시설명": "무등산센트럴파크경로당", "시설유형": "특정계층이용시설", "주소": "광주광역시 남구 방림로 31 (방림동, 무등산센트럴파크아파트)", "시간": null, "구분": "특정인 이용가능" }, "geometry": { "type": "Point", "coordinates": [ 126.919912528461268, 35.135748529556459 ] } },
{ "type": "Feature", "properties": { "fid": 3899, "시설명": "무등산센트럴파크경로당", "시설유형": "특정계층이용시설", "주소": "광주광역시 남구 방림로 31 (방림동, 무등산센트럴파크아파트)", "시간": null, "구분": "특정인 이용가능" }, "geometry": { "type": "Point", "coordinates": [ 126.919912528461268, 35.135748529556459 ] } },
{ "type": "Feature", "properties": { "fid": 3883, "시설명": "양림2휴먼시아경로당", "시설유형": "특정계층이용시설", "주소": "광주광역시 남구 정율성로 7 (양림동, 광주양림휴먼시아)", "시간": null, "구분": "특정인 이용가능" }, "geometry": { "type": "Point", "coordinates": [ 126.91634326801848, 35.135919185643253 ] } },
{ "type": "Feature", "properties": { "fid": 3875, "시설명": "양림2휴먼시아경로당", "시설유형": "특정계층이용시설", "주소": "광주광역시 남구 정율성로 7 (양림동, 광주양림휴먼시아)", "시간": null, "구분": "특정인 이용가능" }, "geometry": { "type": "Point", "coordinates": [ 126.91634326801848, 35.135919185643253 ] } },
{ "type": "Feature", "properties": { "fid": 3872, "시설명": "양지작은도서관", "시설유형": "공공시설", "주소": "광주광역시 남구 제중로 24-10 (양림동)", "시간": null, "구분": "누구나 이용가능" }, "geometry": { "type": "Point", "coordinates": [ 126.915395991233964, 35.136598803109493 ] } },
{ "type": "Feature", "properties": { "fid": 3869, "시설명": "양지작은도서관", "시설유형": "공공시설", "주소": "광주광역시 남구 제중로 24-10 (양림동)", "시간": null, "구분": "누구나 이용가능" }, "geometry": { "type": "Point", "coordinates": [ 126.915395991233964, 35.136598803109493 ] } },
{ "type": "Feature", "properties": { "fid": 3882, "시설명": "광주은행양림동지점", "시설유형": "생활밀착민간시설", "주소": "광주광역시 남구 양림로 37", "시간": null, "구분": "누구나 이용가능" }, "geometry": { "type": "Point", "coordinates": [ 126.9119386597134, 35.136624971803769 ] } },
{ "type": "Feature", "properties": { "fid": 3881, "시설명": "광주은행양림동지점", "시설유형": "생활밀착민간시설", "주소": "광주광역시 남구 양림로 37", "시간": null, "구분": "누구나 이용가능" }, "geometry": { "type": "Point", "coordinates": [ 126.9119386597134, 35.136624971803769 ] } },
{ "type": "Feature", "properties": { "fid": 3884, "시설명": "양림경로당", "시설유형": "특정계층이용시설", "주소": "광주광역시 남구 3·1만세운동길 5-2 (양림동)", "시간": null, "구분": "특정인 이용가능" }, "geometry": { "type": "Point", "coordinates": [ 126.916168862737322, 35.136925614030723 ] } },
{ "type": "Feature", "properties": { "fid": 3876, "시설명": "양림경로당", "시설유형": "특정계층이용시설", "주소": "광주광역시 남구 3·1만세운동길 5-2 (양림동)", "시간": null, "구분": "특정인 이용가능" }, "geometry": { "type": "Point", "coordinates": [ 126.916168862737322, 35.136925614030723 ] } },
{ "type": "Feature", "properties": { "fid": 3886, "시설명": "비인가경로당", "시설유형": "특정계층이용시설", "주소": "광주광역시 남구 백서로51번길 5-1", "시간": null, "구분": "특정인 이용가능" }, "geometry": { "type": "Point", "coordinates": [ 126.913250097553657, 35.137899192123498 ] } },
{ "type": "Feature", "properties": { "fid": 3878, "시설명": "비인가경로당", "시설유형": "특정계층이용시설", "주소": "광주광역시 남구 백서로51번길 5-1", "시간": null, "구분": "특정인 이용가능" }, "geometry": { "type": "Point", "coordinates": [ 126.913250097553657, 35.137899192123498 ] } },
{ "type": "Feature", "properties": { "fid": 3867, "시설명": "양림커뮤니센터", "시설유형": "공공시설", "주소": "광주광역시 남구 백서로 94", "시간": null, "구분": "누구나 이용가능" }, "geometry": { "type": "Point", "coordinates": [ 126.916448119230665, 35.140475594191578 ] } },
{ "type": "Feature", "properties": { "fid": 3870, "시설명": "양림동역사문화작은도서관", "시설유형": "공공시설", "주소": "광주광역시 남구 백서로 94 (양림동)", "시간": null, "구분": "누구나 이용가능" }, "geometry": { "type": "Point", "coordinates": [ 126.916448119230665, 35.140475594191578 ] } },
{ "type": "Feature", "properties": { "fid": 3868, "시설명": "양림동역사문화작은도서관", "시설유형": "공공시설", "주소": "광주광역시 남구 백서로 94 (양림동)", "시간": null, "구분": "누구나 이용가능" }, "geometry": { "type": "Point", "coordinates": [ 126.916448119230665, 35.140475594191578 ] } },
{ "type": "Feature", "properties": { "fid": 3888, "시설명": "양림커뮤니센터", "시설유형": "공공시설", "주소": "광주광역시 남구 백서로 94", "시간": null, "구분": "누구나 이용가능" }, "geometry": { "type": "Point", "coordinates": [ 126.916448119230665, 35.140475594191578 ] } },
{ "type": "Feature", "properties": { "fid": 3889, "시설명": "양림동행정복지센터", "시설유형": "공공시설", "주소": "광주광역시 남구 백서로 94 (양림동)", "시간": null, "구분": "누구나 이용가능" }, "geometry": { "type": "Point", "coordinates": [ 126.916448119230665, 35.140475594191578 ] } },
{ "type": "Feature", "properties": { "fid": 3890, "시설명": "양림동행정복지센터", "시설유형": "공공시설", "주소": "광주광역시 남구 백서로 94 (양림동)", "시간": null, "구분": "누구나 이용가능" }, "geometry": { "type": "Point", "coordinates": [ 126.916448119230665, 35.140475594191578 ] } },
{ "type": "Feature", "properties": { "fid": 3885, "시설명": "양림오거리경로당", "시설유형": "특정계층이용시설", "주소": "광주광역시 남구 천변좌로418번길 22 (양림동)", "시간": null, "구분": "특정인 이용가능" }, "geometry": { "type": "Point", "coordinates": [ 126.915523563872597, 35.140551551096614 ] } },
{ "type": "Feature", "properties": { "fid": 3877, "시설명": "양림오거리경로당", "시설유형": "특정계층이용시설", "주소": "광주광역시 남구 천변좌로418번길 22 (양림동)", "시간": null, "구분": "특정인 이용가능" }, "geometry": { "type": "Point", "coordinates": [ 126.915523563872597, 35.140551551096614 ] } },
{ "type": "Feature", "properties": { "fid": 3874, "시설명": "오월어머니집경로당", "시설유형": "특정계층이용시설", "주소": "광주광역시 남구 천변좌로418번길 18", "시간": null, "구분": "특정인 이용가능" }, "geometry": { "type": "Point", "coordinates": [ 126.91549540454794, 35.141027967573919 ] } },
{ "type": "Feature", "properties": { "fid": 3880, "시설명": "오월어머니집경로당", "시설유형": "특정계층이용시설", "주소": "광주광역시 남구 천변좌로418번길 18", "시간": null, "구분": "특정인 이용가능" }, "geometry": { "type": "Point", "coordinates": [ 126.91549540454794, 35.141027967573919 ] } },
{ "type": "Feature", "properties": { "fid": 3135, "시설명": "금남경로당", "시설유형": "특정계층이용시설", "주소": "광주광역시 동구  백서로125번길  32-7  (금동)", "시간": null, "구분": "특정인 이용가능" }, "geometry": { "type": "Point", "coordinates": [ 126.918057325455592, 35.144841126272098 ] } },
{ "type": "Feature", "properties": { "fid": 3136, "시설명": "문화경로당", "시설유형": "특정계층이용시설", "주소": "광주광역시 동구 백서로125번길 32-7", "시간": null, "구분": "특정인 이용가능" }, "geometry": { "type": "Point", "coordinates": [ 126.918057325455592, 35.144841126272098 ] } },
{ "type": "Feature", "properties": { "fid": 3132, "시설명": "금남경로당", "시설유형": "특정계층이용시설", "주소": "광주광역시 동구  백서로125번길  32-7  (금동)", "시간": null, "구분": "특정인 이용가능" }, "geometry": { "type": "Point", "coordinates": [ 126.918057325455592, 35.144841126272098 ] } },
{ "type": "Feature", "properties": { "fid": 3131, "시설명": "문화경로당", "시설유형": "특정계층이용시설", "주소": "광주광역시 동구 백서로125번길 32-7", "시간": null, "구분": "특정인 이용가능" }, "geometry": { "type": "Point", "coordinates": [ 126.918057325455592, 35.144841126272098 ] } },
{ "type": "Feature", "properties": { "fid": 2997, "시설명": "수영경로당", "시설유형": "특정계층이용시설", "주소": "광주광역시 동구 서석로7번길 12-14 (불로동)", "시간": null, "구분": "특정인 이용가능" }, "geometry": { "type": "Point", "coordinates": [ 126.914852317618355, 35.146240739525638 ] } },
{ "type": "Feature", "properties": { "fid": 2998, "시설명": "수영경로당", "시설유형": "특정계층이용시설", "주소": "광주광역시 동구 서석로7번길 12-14 (불로동)", "시간": null, "구분": "특정인 이용가능" }, "geometry": { "type": "Point", "coordinates": [ 126.914852317618355, 35.146240739525638 ] } },
{ "type": "Feature", "properties": { "fid": 3122, "시설명": "광주은행문화전당점", "시설유형": "생활밀착민간시설", "주소": "광주광역시 동구 서석로 42", "시간": null, "구분": "누구나 이용가능" }, "geometry": { "type": "Point", "coordinates": [ 126.918201416961082, 35.14637618124501 ] } },
{ "type": "Feature", "properties": { "fid": 3121, "시설명": "광주은행문화전당점", "시설유형": "생활밀착민간시설", "주소": "광주광역시 동구 서석로 42", "시간": null, "구분": "누구나 이용가능" }, "geometry": { "type": "Point", "coordinates": [ 126.918201416961082, 35.14637618124501 ] } },
{ "type": "Feature", "properties": { "fid": 4007, "시설명": "서동아남아파트경로당", "시설유형": "특정계층이용시설", "주소": "광주광역시 남구 제중로 93", "시간": null, "구분": "특정인 이용가능" }, "geometry": { "type": "Point", "coordinates": [ 126.91007719198258, 35.140638713478054 ] } },
{ "type": "Feature", "properties": { "fid": 4015, "시설명": "서동영무예다음늘푸른쉼터", "시설유형": "특정계층이용시설", "주소": "광주광역시 남구 제중로 111 (서동, 서동 영무예다음아파트)", "시간": null, "구분": "특정인 이용가능" }, "geometry": { "type": "Point", "coordinates": [ 126.909014453306938, 35.141089170166559 ] } },
{ "type": "Feature", "properties": { "fid": 4018, "시설명": "누림시각경로당", "시설유형": "특정계층이용시설", "주소": "광주광역시 남구 사직안길 32-11", "시간": null, "구분": "특정인 이용가능" }, "geometry": { "type": "Point", "coordinates": [ 126.912341336318946, 35.144658749868825 ] } },
{ "type": "Feature", "properties": { "fid": 4019, "시설명": "사구경로당", "시설유형": "특정계층이용시설", "주소": "광주광역시 남구 사직안길 27-10 (사동)", "시간": null, "구분": "특정인 이용가능" }, "geometry": { "type": "Point", "coordinates": [ 126.911442688960435, 35.144044448078404 ] } },
{ "type": "Feature", "properties": { "fid": 4020, "시설명": "선비골경로당", "시설유형": "특정계층이용시설", "주소": "광주광역시 남구 천변좌로370번길 21-7 (성하아파트)", "시간": null, "구분": "특정인 이용가능" }, "geometry": { "type": "Point", "coordinates": [ 126.910455579117425, 35.144011412068274 ] } },
{ "type": "Feature", "properties": { "fid": 4021, "시설명": "선비골경로당", "시설유형": "특정계층이용시설", "주소": "광주광역시 남구 천변좌로370번길 21-7 (성하아파트)", "시간": null, "구분": "특정인 이용가능" }, "geometry": { "type": "Point", "coordinates": [ 126.910455579117425, 35.144011412068274 ] } },
{ "type": "Feature", "properties": { "fid": 4025, "시설명": "누림시각경로당", "시설유형": "특정계층이용시설", "주소": "광주광역시 남구 사직안길 32-11", "시간": null, "구분": "특정인 이용가능" }, "geometry": { "type": "Point", "coordinates": [ 126.912341336318946, 35.144658749868825 ] } },
{ "type": "Feature", "properties": { "fid": 4030, "시설명": "서동아남아파트경로당", "시설유형": "특정계층이용시설", "주소": "광주광역시 남구 제중로 93", "시간": null, "구분": "특정인 이용가능" }, "geometry": { "type": "Point", "coordinates": [ 126.91007719198258, 35.140638713478054 ] } },
{ "type": "Feature", "properties": { "fid": 4032, "시설명": "서동영무예다음늘푸른쉼터", "시설유형": "특정계층이용시설", "주소": "광주광역시 남구 제중로 111 (서동, 서동 영무예다음아파트)", "시간": null, "구분": "특정인 이용가능" }, "geometry": { "type": "Point", "coordinates": [ 126.909014453306938, 35.141089170166559 ] } },
{ "type": "Feature", "properties": { "fid": 4033, "시설명": "사구경로당", "시설유형": "특정계층이용시설", "주소": "광주광역시 남구 사직안길 27-10 (사동)", "시간": null, "구분": "특정인 이용가능" }, "geometry": { "type": "Point", "coordinates": [ 126.911442688960435, 35.144044448078404 ] } },
{ "type": "Feature", "properties": { "fid": 4104, "시설명": "다올노인복지센터", "시설유형": "특정계층이용시설", "주소": "광주광역시 남구 백운로34번길 9", "시간": null, "구분": "특정인 이용가능" }, "geometry": { "type": "Point", "coordinates": [ 126.908635562974965, 35.137349599415543 ] } },
{ "type": "Feature", "properties": { "fid": 4120, "시설명": "다올노인복지센터", "시설유형": "특정계층이용시설", "주소": "광주광역시 남구 백운로34번길 9", "시간": null, "구분": "특정인 이용가능" }, "geometry": { "type": "Point", "coordinates": [ 126.908635562974965, 35.137349599415543 ] } },
{ "type": "Feature", "properties": { "fid": 2977, "시설명": "충장동행정복지센터", "시설유형": "공공시설", "주소": "광주광역시 동구 충장로58번길 16", "시간": null, "구분": "누구나 이용가능" }, "geometry": { "type": "Point", "coordinates": [ 126.912773838316113, 35.149202717902583 ] } },
{ "type": "Feature", "properties": { "fid": 2978, "시설명": "충장동행정복지센터", "시설유형": "공공시설", "주소": "광주광역시 동구 충장로58번길 16", "시간": null, "구분": "누구나 이용가능" }, "geometry": { "type": "Point", "coordinates": [ 126.912773838316113, 35.149202717902583 ] } },
{ "type": "Feature", "properties": { "fid": 2982, "시설명": "충의경로당", "시설유형": "특정계층이용시설", "주소": "광주광역시 동구  예술길  19-8  (궁동)", "시간": null, "구분": "특정인 이용가능" }, "geometry": { "type": "Point", "coordinates": [ 126.918775706658352, 35.15030190299499 ] } },
{ "type": "Feature", "properties": { "fid": 2994, "시설명": "충의경로당", "시설유형": "특정계층이용시설", "주소": "광주광역시 동구  예술길  19-8  (궁동)", "시간": null, "구분": "특정인 이용가능" }, "geometry": { "type": "Point", "coordinates": [ 126.918775706658352, 35.15030190299499 ] } },
{ "type": "Feature", "properties": { "fid": 2986, "시설명": "광주은행중부점", "시설유형": "생활밀착민간시설", "주소": "광주광역시 동구 천변우로 339", "시간": null, "구분": "누구나 이용가능" }, "geometry": { "type": "Point", "coordinates": [ 126.90956896162821, 35.150346707677748 ] } },
{ "type": "Feature", "properties": { "fid": 2988, "시설명": "광주은행중부점", "시설유형": "생활밀착민간시설", "주소": "광주광역시 동구 천변우로 339", "시간": null, "구분": "누구나 이용가능" }, "geometry": { "type": "Point", "coordinates": [ 126.90956896162821, 35.150346707677748 ] } },
{ "type": "Feature", "properties": { "fid": 2989, "시설명": "광주은행금남로점", "시설유형": "생활밀착민간시설", "주소": "광주광역시 동구 금남로 201", "시간": null, "구분": "누구나 이용가능" }, "geometry": { "type": "Point", "coordinates": [ 126.914857064400977, 35.150798397558432 ] } },
{ "type": "Feature", "properties": { "fid": 2990, "시설명": "광주은행금남로점", "시설유형": "생활밀착민간시설", "주소": "광주광역시 동구 금남로 201", "시간": null, "구분": "누구나 이용가능" }, "geometry": { "type": "Point", "coordinates": [ 126.914857064400977, 35.150798397558432 ] } },
{ "type": "Feature", "properties": { "fid": 2993, "시설명": "충수경로당", "시설유형": "특정계층이용시설", "주소": "광주광역시 동구 충장로 14-3 (충장로5가)", "시간": null, "구분": "특정인 이용가능" }, "geometry": { "type": "Point", "coordinates": [ 126.910504714553241, 35.151792431311982 ] } },
{ "type": "Feature", "properties": { "fid": 2981, "시설명": "충수경로당", "시설유형": "특정계층이용시설", "주소": "광주광역시 동구 충장로 14-3 (충장로5가)", "시간": null, "구분": "특정인 이용가능" }, "geometry": { "type": "Point", "coordinates": [ 126.910504714553241, 35.151792431311982 ] } },
{ "type": "Feature", "properties": { "fid": 2983, "시설명": "파월경로당", "시설유형": "특정계층이용시설", "주소": "광주광역시 동구  동계천로  74   (장동)", "시간": null, "구분": "특정인 이용가능" }, "geometry": { "type": "Point", "coordinates": [ 126.919315391442268, 35.152904811045744 ] } },
{ "type": "Feature", "properties": { "fid": 2996, "시설명": "파월경로당", "시설유형": "특정계층이용시설", "주소": "광주광역시 동구  동계천로  74   (장동)", "시간": null, "구분": "특정인 이용가능" }, "geometry": { "type": "Point", "coordinates": [ 126.919315391442268, 35.152904811045744 ] } },
{ "type": "Feature", "properties": { "fid": 2991, "시설명": "보훈경로당", "시설유형": "특정계층이용시설", "주소": "광주광역시 동구  구성로204번길  6-1  (대인동)", "시간": null, "구분": "특정인 이용가능" }, "geometry": { "type": "Point", "coordinates": [ 126.915055089408199, 35.153138011761428 ] } },
{ "type": "Feature", "properties": { "fid": 2980, "시설명": "보훈경로당", "시설유형": "특정계층이용시설", "주소": "광주광역시 동구  구성로204번길  6-1  (대인동)", "시간": null, "구분": "특정인 이용가능" }, "geometry": { "type": "Point", "coordinates": [ 126.915055089408199, 35.153138011761428 ] } },
{ "type": "Feature", "properties": { "fid": 2979, "시설명": "통일경로당", "시설유형": "특정계층이용시설", "주소": "광주광역시 동구 제봉로194번길 4", "시간": null, "구분": "특정인 이용가능" }, "geometry": { "type": "Point", "coordinates": [ 126.916390658686637, 35.153533933971062 ] } },
{ "type": "Feature", "properties": { "fid": 2992, "시설명": "통일경로당", "시설유형": "특정계층이용시설", "주소": "광주광역시 동구 제봉로194번길 4", "시간": null, "구분": "특정인 이용가능" }, "geometry": { "type": "Point", "coordinates": [ 126.916390658686637, 35.153533933971062 ] } },
{ "type": "Feature", "properties": { "fid": 3005, "시설명": "무공수훈자경로당", "시설유형": "특정계층이용시설", "주소": "광주광역시 동구 중앙로 254", "시간": null, "구분": "특정인 이용가능" }, "geometry": { "type": "Point", "coordinates": [ 126.920634109728283, 35.15418554894697 ] } },
{ "type": "Feature", "properties": { "fid": 2999, "시설명": "무공수훈자경로당", "시설유형": "특정계층이용시설", "주소": "광주광역시 동구 중앙로 254", "시간": null, "구분": "특정인 이용가능" }, "geometry": { "type": "Point", "coordinates": [ 126.920634109728283, 35.15418554894697 ] } },
{ "type": "Feature", "properties": { "fid": 2987, "시설명": "광주은행영업부", "시설유형": "생활밀착민간시설", "주소": "광주광역시 동구 제봉로 225", "시간": null, "구분": "누구나 이용가능" }, "geometry": { "type": "Point", "coordinates": [ 126.91282556968558, 35.154880227044259 ] } },
{ "type": "Feature", "properties": { "fid": 2985, "시설명": "광주은행영업부", "시설유형": "생활밀착민간시설", "주소": "광주광역시 동구 제봉로 225", "시간": null, "구분": "누구나 이용가능" }, "geometry": { "type": "Point", "coordinates": [ 126.91282556968558, 35.154880227044259 ] } },
{ "type": "Feature", "properties": { "fid": 4490, "시설명": "북성남자경로당", "시설유형": "특정계층이용시설", "주소": "광주광역시 북구 금재로36번길 35-1", "시간": null, "구분": "특정인 이용가능" }, "geometry": { "type": "Point", "coordinates": [ 126.909387012286501, 35.15609425395585 ] } },
{ "type": "Feature", "properties": { "fid": 4495, "시설명": "북성남자경로당", "시설유형": "특정계층이용시설", "주소": "광주광역시 북구 금재로36번길 35-1", "시간": null, "구분": "특정인 이용가능" }, "geometry": { "type": "Point", "coordinates": [ 126.909387012286501, 35.15609425395585 ] } },
{ "type": "Feature", "properties": { "fid": 3930, "시설명": "방림금호맨션경로당", "시설유형": "특정계층이용시설", "주소": "광주광역시 남구 용대로 180-8", "시간": null, "구분": "특정인 이용가능" }, "geometry": { "type": "Point", "coordinates": [ 126.919002158392829, 35.13128727371641 ] } },
{ "type": "Feature", "properties": { "fid": 3925, "시설명": "방림금호맨션경로당", "시설유형": "특정계층이용시설", "주소": "광주광역시 남구 용대로 180-8", "시간": null, "구분": "특정인 이용가능" }, "geometry": { "type": "Point", "coordinates": [ 126.919002158392829, 35.13128727371641 ] } },
{ "type": "Feature", "properties": { "fid": 3898, "시설명": "봉선중길한국아델리움5차아파트경로당", "시설유형": "특정계층이용시설", "주소": "광주광역시 남구 봉선중길 43", "시간": null, "구분": "특정인 이용가능" }, "geometry": { "type": "Point", "coordinates": [ 126.915382860010126, 35.13133016165078 ] } },
{ "type": "Feature", "properties": { "fid": 3910, "시설명": "봉선중길한국아델리움5차아파트경로당", "시설유형": "특정계층이용시설", "주소": "광주광역시 남구 봉선중길 43", "시간": null, "구분": "특정인 이용가능" }, "geometry": { "type": "Point", "coordinates": [ 126.915382860010126, 35.13133016165078 ] } },
{ "type": "Feature", "properties": { "fid": 3895, "시설명": "삼일경로당", "시설유형": "특정계층이용시설", "주소": "광주광역시 남구 용대로171번길 7", "시간": null, "구분": "특정인 이용가능" }, "geometry": { "type": "Point", "coordinates": [ 126.916585435306516, 35.131580416719927 ] } },
{ "type": "Feature", "properties": { "fid": 3907, "시설명": "삼일경로당", "시설유형": "특정계층이용시설", "주소": "광주광역시 남구 용대로171번길 7", "시간": null, "구분": "특정인 이용가능" }, "geometry": { "type": "Point", "coordinates": [ 126.916585435306516, 35.131580416719927 ] } },
{ "type": "Feature", "properties": { "fid": 3903, "시설명": "앵당경로당", "시설유형": "특정계층이용시설", "주소": "광주광역시 남구 대남대로117번길 21-5 (방림동)", "시간": null, "구분": "특정인 이용가능" }, "geometry": { "type": "Point", "coordinates": [ 126.91285563807574, 35.13207636936977 ] } },
{ "type": "Feature", "properties": { "fid": 3897, "시설명": "앵당경로당", "시설유형": "특정계층이용시설", "주소": "광주광역시 남구 대남대로117번길 21-5 (방림동)", "시간": null, "구분": "특정인 이용가능" }, "geometry": { "type": "Point", "coordinates": [ 126.91285563807574, 35.13207636936977 ] } },
{ "type": "Feature", "properties": { "fid": 3871, "시설명": "방젯골어린이작은도서관", "시설유형": "공공시설", "주소": "광주광역시 남구 용대로183번길 13", "시간": null, "구분": "누구나 이용가능" }, "geometry": { "type": "Point", "coordinates": [ 126.916953366367011, 35.132446173377851 ] } },
{ "type": "Feature", "properties": { "fid": 3873, "시설명": "방젯골어린이작은도서관", "시설유형": "공공시설", "주소": "광주광역시 남구 용대로183번길 13", "시간": null, "구분": "누구나 이용가능" }, "geometry": { "type": "Point", "coordinates": [ 126.916953366367011, 35.132446173377851 ] } },
{ "type": "Feature", "properties": { "fid": 3893, "시설명": "광신프로그레스@경로당", "시설유형": "특정계층이용시설", "주소": "광주광역시 남구 용대로 186 (방림동, 방림광신프로그레스)", "시간": null, "구분": "특정인 이용가능" }, "geometry": { "type": "Point", "coordinates": [ 126.918640714197224, 35.132983345544069 ] } },
{ "type": "Feature", "properties": { "fid": 3909, "시설명": "광신프로그레스@경로당", "시설유형": "특정계층이용시설", "주소": "광주광역시 남구 용대로 182 (광신프로그레스)", "시간": null, "구분": "특정인 이용가능" }, "geometry": { "type": "Point", "coordinates": [ 126.918640714197224, 35.132983345544069 ] } },
{ "type": "Feature", "properties": { "fid": 3900, "시설명": "낙향경로당", "시설유형": "특정계층이용시설", "주소": "광주광역시 남구 대남대로95번길 11-1 (방림동)", "시간": null, "구분": "특정인 이용가능" }, "geometry": { "type": "Point", "coordinates": [ 126.914887356508117, 35.133141374474015 ] } },
{ "type": "Feature", "properties": { "fid": 3904, "시설명": "낙향경로당", "시설유형": "특정계층이용시설", "주소": "광주광역시 남구 대남대로95번길 11-1 (방림동)", "시간": null, "구분": "특정인 이용가능" }, "geometry": { "type": "Point", "coordinates": [ 126.914887356508117, 35.133141374474015 ] } },
{ "type": "Feature", "properties": { "fid": 3923, "시설명": "광명1차경로당", "시설유형": "특정계층이용시설", "주소": "광주광역시 남구 방림로20번길 4", "시간": null, "구분": "특정인 이용가능" }, "geometry": { "type": "Point", "coordinates": [ 126.919597018022756, 35.133441121097562 ] } },
{ "type": "Feature", "properties": { "fid": 3918, "시설명": "광명1차경로당", "시설유형": "특정계층이용시설", "주소": "광주광역시 남구 방림로20번길 4", "시간": null, "구분": "특정인 이용가능" }, "geometry": { "type": "Point", "coordinates": [ 126.919597018022756, 35.133441121097562 ] } },
{ "type": "Feature", "properties": { "fid": 3896, "시설명": "방림1명지맨션경로당", "시설유형": "특정계층이용시설", "주소": "광주광역시 남구 대남대로 89", "시간": null, "구분": "특정인 이용가능" }, "geometry": { "type": "Point", "coordinates": [ 126.914983989991484, 35.134054718541456 ] } },
{ "type": "Feature", "properties": { "fid": 3908, "시설명": "방림1명지맨션경로당", "시설유형": "특정계층이용시설", "주소": "광주광역시 남구 대남대로 89", "시간": null, "구분": "특정인 이용가능" }, "geometry": { "type": "Point", "coordinates": [ 126.914983989991484, 35.134054718541456 ] } },
{ "type": "Feature", "properties": { "fid": 3902, "시설명": "방림경로당", "시설유형": "특정계층이용시설", "주소": "광주광역시 남구 용대로 202-6 (방림동)", "시간": null, "구분": "특정인 이용가능" }, "geometry": { "type": "Point", "coordinates": [ 126.917763679270536, 35.134125654912523 ] } },
{ "type": "Feature", "properties": { "fid": 3901, "시설명": "방림경로당", "시설유형": "특정계층이용시설", "주소": "광주광역시 남구 용대로 202-6 (방림동)", "시간": null, "구분": "특정인 이용가능" }, "geometry": { "type": "Point", "coordinates": [ 126.917763679270536, 35.134125654912523 ] } },
{ "type": "Feature", "properties": { "fid": 3906, "시설명": "명지로드힐경로당", "시설유형": "특정계층이용시설", "주소": "광주광역시 남구 대남대로85번길 3 (방림동, 방림명지로드힐)", "시간": null, "구분": "특정인 이용가능" }, "geometry": { "type": "Point", "coordinates": [ 126.916682175170891, 35.134313998315207 ] } },
{ "type": "Feature", "properties": { "fid": 3894, "시설명": "명지로드힐경로당", "시설유형": "특정계층이용시설", "주소": "광주광역시 남구 대남대로85번길 3 (방림동, 방림명지로드힐)", "시간": null, "구분": "특정인 이용가능" }, "geometry": { "type": "Point", "coordinates": [ 126.916682175170891, 35.134313998315207 ] } },
{ "type": "Feature", "properties": { "fid": 3891, "시설명": "방림1동행정복지센터", "시설유형": "공공시설", "주소": "광주광역시 남구 오방로 101-2", "시간": null, "구분": "누구나 이용가능" }, "geometry": { "type": "Point", "coordinates": [ 126.91828853080348, 35.134381249452147 ] } },
{ "type": "Feature", "properties": { "fid": 3892, "시설명": "방림1동행정복지센터", "시설유형": "공공시설", "주소": "광주광역시 남구 오방로 101-2", "시간": null, "구분": "누구나 이용가능" }, "geometry": { "type": "Point", "coordinates": [ 126.91828853080348, 35.134381249452147 ] } },
{ "type": "Feature", "properties": { "fid": 3976, "시설명": "한국아델리움경로당", "시설유형": "특정계층이용시설", "주소": "광주광역시 남구 제석로80번안길 9", "시간": null, "구분": "특정인 이용가능" }, "geometry": { "type": "Point", "coordinates": [ 126.913447996118776, 35.11957038863153 ] } },
{ "type": "Feature", "properties": { "fid": 3979, "시설명": "봉선동포스코더샵경로당", "시설유형": "특정계층이용시설", "주소": "광주광역시 남구  효사랑길  14 , 노인정 (봉선동, 봉선동포스코아파트)", "시간": null, "구분": "특정인 이용가능" }, "geometry": { "type": "Point", "coordinates": [ 126.916197603436913, 35.120180405456267 ] } },
{ "type": "Feature", "properties": { "fid": 3974, "시설명": "봉선쌍용아파트경로당", "시설유형": "특정계층이용시설", "주소": "광주광역시 남구 봉선중앙로 8", "시간": null, "구분": "특정인 이용가능" }, "geometry": { "type": "Point", "coordinates": [ 126.913969773441323, 35.122031720979976 ] } },
{ "type": "Feature", "properties": { "fid": 3984, "시설명": "방림신협봉선중앙로지점", "시설유형": "생활밀착민간시설", "주소": "광주광역시 남구 봉선로 176 (봉선동)", "시간": null, "구분": "누구나 이용가능" }, "geometry": { "type": "Point", "coordinates": [ 126.914310309893949, 35.122809382593495 ] } },
{ "type": "Feature", "properties": { "fid": 3987, "시설명": "방림신협봉선중앙로지점", "시설유형": "생활밀착민간시설", "주소": "광주광역시 남구 봉선로 176 (봉선동)", "시간": null, "구분": "누구나 이용가능" }, "geometry": { "type": "Point", "coordinates": [ 126.914310309893949, 35.122809382593495 ] } },
{ "type": "Feature", "properties": { "fid": 3985, "시설명": "삼익2차경로당", "시설유형": "특정계층이용시설", "주소": "광주광역시 남구  봉선로175번길  6   (봉선동, 상가)", "시간": null, "구분": "특정인 이용가능" }, "geometry": { "type": "Point", "coordinates": [ 126.915008984111807, 35.123926317125864 ] } },
{ "type": "Feature", "properties": { "fid": 3980, "시설명": "삼익2차경로당", "시설유형": "특정계층이용시설", "주소": "광주광역시 남구  봉선로175번길  6   (봉선동, 상가)", "시간": null, "구분": "특정인 이용가능" }, "geometry": { "type": "Point", "coordinates": [ 126.915008984111807, 35.123926317125864 ] } },
{ "type": "Feature", "properties": { "fid": 3967, "시설명": "무등파크3차1단지경로당", "시설유형": "특정계층이용시설", "주소": "광주광역시 남구 용대로 90-1 (봉선동, 봉선3차1단지무등파크아파트)", "시간": null, "구분": "특정인 이용가능" }, "geometry": { "type": "Point", "coordinates": [ 126.918646182789288, 35.124055789357335 ] } },
{ "type": "Feature", "properties": { "fid": 3972, "시설명": "삼익경로당", "시설유형": "특정계층이용시설", "주소": "광주광역시 남구 봉선중앙로 46", "시간": null, "구분": "특정인 이용가능" }, "geometry": { "type": "Point", "coordinates": [ 126.912949712800426, 35.124680037653029 ] } },
{ "type": "Feature", "properties": { "fid": 3968, "시설명": "무등파크3차2단지경로당", "시설유형": "특정계층이용시설", "주소": "광주광역시 남구 용대로 92-1", "시간": null, "구분": "특정인 이용가능" }, "geometry": { "type": "Point", "coordinates": [ 126.918987381384241, 35.124906552189152 ] } },
{ "type": "Feature", "properties": { "fid": 3989, "시설명": "무등파크3차2단지경로당", "시설유형": "특정계층이용시설", "주소": "광주광역시 남구 용대로 92-1", "시간": null, "구분": "특정인 이용가능" }, "geometry": { "type": "Point", "coordinates": [ 126.918987381384241, 35.124906552189152 ] } },
{ "type": "Feature", "properties": { "fid": 3981, "시설명": "무등2차경로당", "시설유형": "특정계층이용시설", "주소": "광주광역시 남구 봉선2로 96-14", "시간": null, "구분": "특정인 이용가능" }, "geometry": { "type": "Point", "coordinates": [ 126.916570450060334, 35.125698481476832 ] } },
{ "type": "Feature", "properties": { "fid": 3975, "시설명": "무등파크경로당(무등1차)", "시설유형": "특정계층이용시설", "주소": "광주광역시 남구 용대로119번길 13", "시간": null, "구분": "특정인 이용가능" }, "geometry": { "type": "Point", "coordinates": [ 126.916989944737608, 35.12653343897238 ] } },
{ "type": "Feature", "properties": { "fid": 3966, "시설명": "명지아파트경로당", "시설유형": "특정계층이용시설", "주소": "광주광역시 남구 용대로 128 (봉선동, 명지아파트)", "시간": null, "구분": "특정인 이용가능" }, "geometry": { "type": "Point", "coordinates": [ 126.918752412467072, 35.127174257609227 ] } },
{ "type": "Feature", "properties": { "fid": 3955, "시설명": "봉선경로당(모아2차)", "시설유형": "특정계층이용시설", "주소": "광주광역시 남구 봉선1로 86", "시간": null, "구분": "특정인 이용가능" }, "geometry": { "type": "Point", "coordinates": [ 126.91538106335733, 35.127192833224065 ] } },
{ "type": "Feature", "properties": { "fid": 3952, "시설명": "봉선경로당(모아2차)", "시설유형": "특정계층이용시설", "주소": "광주광역시 남구 봉선1로 86", "시간": null, "구분": "특정인 이용가능" }, "geometry": { "type": "Point", "coordinates": [ 126.91538106335733, 35.127192833224065 ] } },
{ "type": "Feature", "properties": { "fid": 3919, "시설명": "라인효친2차경로당", "시설유형": "특정계층이용시설", "주소": "광주광역시 남구  용대로  131-1,  상가1동 (방림동)", "시간": null, "구분": "특정인 이용가능" }, "geometry": { "type": "Point", "coordinates": [ 126.917302594733172, 35.127551918065464 ] } },
{ "type": "Feature", "properties": { "fid": 3915, "시설명": "라인효친2차경로당", "시설유형": "특정계층이용시설", "주소": "광주광역시 남구  용대로  131-1,  상가1동 (방림동)", "시간": null, "구분": "특정인 이용가능" }, "geometry": { "type": "Point", "coordinates": [ 126.917302594733172, 35.127551918065464 ] } },
{ "type": "Feature", "properties": { "fid": 3949, "시설명": "방림신협봉선지점", "시설유형": "생활밀착민간시설", "주소": "광주광역시 남구 봉선1로 82 (봉선동)", "시간": null, "구분": "누구나 이용가능" }, "geometry": { "type": "Point", "coordinates": [ 126.914112492352274, 35.127898121427151 ] } },
{ "type": "Feature", "properties": { "fid": 3953, "시설명": "방림신협봉선지점", "시설유형": "생활밀착민간시설", "주소": "광주광역시 남구 봉선1로 82 (봉선동)", "시간": null, "구분": "누구나 이용가능" }, "geometry": { "type": "Point", "coordinates": [ 126.914112492352274, 35.127898121427151 ] } },
{ "type": "Feature", "properties": { "fid": 3920, "시설명": "라인효친1차경로당", "시설유형": "특정계층이용시설", "주소": "광주광역시 남구 용대로 131", "시간": null, "구분": "특정인 이용가능" }, "geometry": { "type": "Point", "coordinates": [ 126.917119610905985, 35.128466352708855 ] } },
{ "type": "Feature", "properties": { "fid": 3913, "시설명": "라인효친1차경로당", "시설유형": "특정계층이용시설", "주소": "광주광역시 남구 용대로 131", "시간": null, "구분": "특정인 이용가능" }, "geometry": { "type": "Point", "coordinates": [ 126.917119610905985, 35.128466352708855 ] } },
{ "type": "Feature", "properties": { "fid": 3914, "시설명": "모아APT경로당", "시설유형": "특정계층이용시설", "주소": "광주광역시 남구  봉선1로  87 , 상가 (방림동, 모아아파트2단지)", "시간": null, "구분": "특정인 이용가능" }, "geometry": { "type": "Point", "coordinates": [ 126.91528737466011, 35.128588961925807 ] } },
{ "type": "Feature", "properties": { "fid": 3922, "시설명": "모아APT경로당", "시설유형": "특정계층이용시설", "주소": "광주광역시 남구  봉선1로  87 , 상가 (방림동, 모아아파트2단지)", "시간": null, "구분": "특정인 이용가능" }, "geometry": { "type": "Point", "coordinates": [ 126.91528737466011, 35.128588961925807 ] } },
{ "type": "Feature", "properties": { "fid": 3921, "시설명": "금원경로당", "시설유형": "특정계층이용시설", "주소": "광주광역시 남구 용대로 149-13", "시간": null, "구분": "특정인 이용가능" }, "geometry": { "type": "Point", "coordinates": [ 126.916885052407494, 35.129282624977982 ] } },
{ "type": "Feature", "properties": { "fid": 3912, "시설명": "금원경로당", "시설유형": "특정계층이용시설", "주소": "광주광역시 남구 용대로 149-13", "시간": null, "구분": "특정인 이용가능" }, "geometry": { "type": "Point", "coordinates": [ 126.916885052407494, 35.129282624977982 ] } },
{ "type": "Feature", "properties": { "fid": 3917, "시설명": "방림2동광명그린경로당", "시설유형": "특정계층이용시설", "주소": "광주광역시 남구 용대로 155", "시간": null, "구분": "특정인 이용가능" }, "geometry": { "type": "Point", "coordinates": [ 126.917639643560307, 35.129917424970152 ] } },
{ "type": "Feature", "properties": { "fid": 3927, "시설명": "방림2동광명그린경로당", "시설유형": "특정계층이용시설", "주소": "광주광역시 남구 용대로 155", "시간": null, "구분": "특정인 이용가능" }, "geometry": { "type": "Point", "coordinates": [ 126.917639643560307, 35.129917424970152 ] } },
{ "type": "Feature", "properties": { "fid": 3990, "시설명": "무등파크3차1단지경로당", "시설유형": "특정계층이용시설", "주소": "광주광역시 남구 용대로 90-1 (봉선동, 봉선3차1단지무등파크아파트)", "시간": null, "구분": "특정인 이용가능" }, "geometry": { "type": "Point", "coordinates": [ 126.918646182789288, 35.124055789357335 ] } },
{ "type": "Feature", "properties": { "fid": 3991, "시설명": "봉선쌍용아파트경로당", "시설유형": "특정계층이용시설", "주소": "광주광역시 남구 봉선중앙로 8", "시간": null, "구분": "특정인 이용가능" }, "geometry": { "type": "Point", "coordinates": [ 126.913969773441323, 35.122031720979976 ] } },
{ "type": "Feature", "properties": { "fid": 3993, "시설명": "명지아파트경로당", "시설유형": "특정계층이용시설", "주소": "광주광역시 남구 용대로 128 (봉선동, 명지아파트)", "시간": null, "구분": "특정인 이용가능" }, "geometry": { "type": "Point", "coordinates": [ 126.918752412467072, 35.127174257609227 ] } },
{ "type": "Feature", "properties": { "fid": 3994, "시설명": "한국아델리움경로당", "시설유형": "특정계층이용시설", "주소": "광주광역시 남구 제석로80번안길 9", "시간": null, "구분": "특정인 이용가능" }, "geometry": { "type": "Point", "coordinates": [ 126.913447996118776, 35.11957038863153 ] } },
{ "type": "Feature", "properties": { "fid": 3995, "시설명": "무등파크경로당(무등1차)", "시설유형": "특정계층이용시설", "주소": "광주광역시 남구 용대로119번길 13", "시간": null, "구분": "특정인 이용가능" }, "geometry": { "type": "Point", "coordinates": [ 126.916989944737608, 35.12653343897238 ] } },
{ "type": "Feature", "properties": { "fid": 3996, "시설명": "봉선동포스코더샵경로당", "시설유형": "특정계층이용시설", "주소": "광주광역시 남구  효사랑길  14 , 노인정 (봉선동, 봉선동포스코아파트)", "시간": null, "구분": "특정인 이용가능" }, "geometry": { "type": "Point", "coordinates": [ 126.916197603436913, 35.120180405456267 ] } },
{ "type": "Feature", "properties": { "fid": 3997, "시설명": "무등2차경로당", "시설유형": "특정계층이용시설", "주소": "광주광역시 남구 봉선2로 96-14", "시간": null, "구분": "특정인 이용가능" }, "geometry": { "type": "Point", "coordinates": [ 126.916570450060334, 35.125698481476832 ] } },
{ "type": "Feature", "properties": { "fid": 4002, "시설명": "삼익경로당", "시설유형": "특정계층이용시설", "주소": "광주광역시 남구 봉선중앙로 46", "시간": null, "구분": "특정인 이용가능" }, "geometry": { "type": "Point", "coordinates": [ 126.912949712800426, 35.124680037653029 ] } },
{ "type": "Feature", "properties": { "fid": 4003, "시설명": "봉선2동행정복지센터", "시설유형": "공공시설", "주소": "광주광역시 남구 봉선로 189 (봉선동)", "시간": null, "구분": "누구나 이용가능" }, "geometry": { "type": "Point", "coordinates": [ 126.915826974047221, 35.123084667348266 ] } },
{ "type": "Feature", "properties": { "fid": 4004, "시설명": "봉선2동행정복지센터", "시설유형": "공공시설", "주소": "광주광역시 남구 봉선로 189 (봉선동)", "시간": null, "구분": "누구나 이용가능" }, "geometry": { "type": "Point", "coordinates": [ 126.915826974047221, 35.123084667348266 ] } },
{ "type": "Feature", "properties": { "fid": 3229, "시설명": "월남호반베르디움2차경로당", "시설유형": "특정계층이용시설", "주소": "광주광역시 동구 남문로 307", "시간": null, "구분": "특정인 이용가능" }, "geometry": { "type": "Point", "coordinates": [ 126.9388539854546, 35.099400473982584 ] } },
{ "type": "Feature", "properties": { "fid": 3259, "시설명": "월남호반베르디움2차경로당", "시설유형": "특정계층이용시설", "주소": "광주광역시 동구 남문로 307", "시간": null, "구분": "특정인 이용가능" }, "geometry": { "type": "Point", "coordinates": [ 126.9388539854546, 35.099400473982584 ] } },
{ "type": "Feature", "properties": { "fid": 3230, "시설명": "주남경로당", "시설유형": "특정계층이용시설", "주소": "광주광역시 동구 주남길 11  (월남동)", "시간": null, "구분": "특정인 이용가능" }, "geometry": { "type": "Point", "coordinates": [ 126.940636793197726, 35.10207799661449 ] } },
{ "type": "Feature", "properties": { "fid": 3258, "시설명": "주남경로당", "시설유형": "특정계층이용시설", "주소": "광주광역시 동구 주남길 11  (월남동)", "시간": null, "구분": "특정인 이용가능" }, "geometry": { "type": "Point", "coordinates": [ 126.940636793197726, 35.10207799661449 ] } },
{ "type": "Feature", "properties": { "fid": 3227, "시설명": "월남호반베르디움1차경로당", "시설유형": "특정계층이용시설", "주소": "광주광역시 동구 남문로 377", "시간": null, "구분": "특정인 이용가능" }, "geometry": { "type": "Point", "coordinates": [ 126.937605759267754, 35.103850117736194 ] } },
{ "type": "Feature", "properties": { "fid": 3266, "시설명": "월남호반베르디움1차경로당", "시설유형": "특정계층이용시설", "주소": "광주광역시 동구 남문로 377", "시간": null, "구분": "특정인 이용가능" }, "geometry": { "type": "Point", "coordinates": [ 126.937605759267754, 35.103850117736194 ] } },
{ "type": "Feature", "properties": { "fid": 3231, "시설명": "칠전경로당", "시설유형": "특정계층이용시설", "주소": "광주광역시 동구 칠전길 70", "시간": null, "구분": "특정인 이용가능" }, "geometry": { "type": "Point", "coordinates": [ 126.927331087168398, 35.104910185155838 ] } },
{ "type": "Feature", "properties": { "fid": 3257, "시설명": "칠전경로당", "시설유형": "특정계층이용시설", "주소": "광주광역시 동구 칠전길 70", "시간": null, "구분": "특정인 이용가능" }, "geometry": { "type": "Point", "coordinates": [ 126.927331087168398, 35.104910185155838 ] } },
{ "type": "Feature", "properties": { "fid": 3228, "시설명": "녹동경로당", "시설유형": "특정계층이용시설", "주소": "광주광역시 동구 녹동길 85", "시간": null, "구분": "특정인 이용가능" }, "geometry": { "type": "Point", "coordinates": [ 126.934231302316107, 35.105442040940424 ] } },
{ "type": "Feature", "properties": { "fid": 3260, "시설명": "녹동경로당", "시설유형": "특정계층이용시설", "주소": "광주광역시 동구 녹동길 85", "시간": null, "구분": "특정인 이용가능" }, "geometry": { "type": "Point", "coordinates": [ 126.934231302316107, 35.105442040940424 ] } },
{ "type": "Feature", "properties": { "fid": 3287, "시설명": "빛고을종합사회복지관", "시설유형": "공공시설", "주소": "광주광역시 동구 천변좌로 656", "시간": null, "구분": "누구나 이용가능" }, "geometry": { "type": "Point", "coordinates": [ 126.935134823069063, 35.113198832167548 ] } },
{ "type": "Feature", "properties": { "fid": 3252, "시설명": "화산경로당", "시설유형": "특정계층이용시설", "주소": "광주광역시 동구 용산동 화산로238번길  16   (용산동)", "시간": null, "구분": "특정인 이용가능" }, "geometry": { "type": "Point", "coordinates": [ 126.921520999281782, 35.11557310306187 ] } },
{ "type": "Feature", "properties": { "fid": 3243, "시설명": "화산경로당", "시설유형": "특정계층이용시설", "주소": "광주광역시 동구 용산동 화산로238번길  16   (용산동)", "시간": null, "구분": "특정인 이용가능" }, "geometry": { "type": "Point", "coordinates": [ 126.921520999281782, 35.11557310306187 ] } },
{ "type": "Feature", "properties": { "fid": 3251, "시설명": "용산LH경로당", "시설유형": "특정계층이용시설", "주소": "광주광역시 동구 용산2로 20  (용산동, 용산엘에이치1단지)", "시간": null, "구분": "특정인 이용가능" }, "geometry": { "type": "Point", "coordinates": [ 126.922158317707286, 35.117865827664637 ] } },
{ "type": "Feature", "properties": { "fid": 3241, "시설명": "용산LH경로당", "시설유형": "특정계층이용시설", "주소": "광주광역시 동구 용산2로 20  (용산동, 용산엘에이치1단지)", "시간": null, "구분": "특정인 이용가능" }, "geometry": { "type": "Point", "coordinates": [ 126.922158317707286, 35.117865827664637 ] } },
{ "type": "Feature", "properties": { "fid": 3253, "시설명": "호반맨션경로당", "시설유형": "특정계층이용시설", "주소": "광주광역시 동구 화산로 328-6", "시간": null, "구분": "특정인 이용가능" }, "geometry": { "type": "Point", "coordinates": [ 126.930962903685895, 35.117908955773437 ] } },
{ "type": "Feature", "properties": { "fid": 3246, "시설명": "호반맨션경로당", "시설유형": "특정계층이용시설", "주소": "광주광역시 동구 화산로 328-6", "시간": null, "구분": "특정인 이용가능" }, "geometry": { "type": "Point", "coordinates": [ 126.930962903685895, 35.117908955773437 ] } },
{ "type": "Feature", "properties": { "fid": 3248, "시설명": "동산아파트경로당", "시설유형": "특정계층이용시설", "주소": "광주광역시 동구 화산로350번길 18", "시간": null, "구분": "특정인 이용가능" }, "geometry": { "type": "Point", "coordinates": [ 126.932274648451738, 35.118185630620594 ] } },
{ "type": "Feature", "properties": { "fid": 3269, "시설명": "동산아파트경로당", "시설유형": "특정계층이용시설", "주소": "광주광역시 동구 화산로350번길 18", "시간": null, "구분": "특정인 이용가능" }, "geometry": { "type": "Point", "coordinates": [ 126.932274648451738, 35.118185630620594 ] } },
{ "type": "Feature", "properties": { "fid": 3244, "시설명": "용산모아엘가에듀파크경로당", "시설유형": "특정계층이용시설", "주소": "광주광역시 동구 용산3길 17 (용산동, 모아엘가 에듀파크)", "시간": null, "구분": "특정인 이용가능" }, "geometry": { "type": "Point", "coordinates": [ 126.925767540649659, 35.118591142818204 ] } },
{ "type": "Feature", "properties": { "fid": 3250, "시설명": "용산모아엘가에듀파크경로당", "시설유형": "특정계층이용시설", "주소": "광주광역시 동구 용산3길 17 (용산동, 모아엘가 에듀파크)", "시간": null, "구분": "특정인 이용가능" }, "geometry": { "type": "Point", "coordinates": [ 126.925767540649659, 35.118591142818204 ] } },
{ "type": "Feature", "properties": { "fid": 3256, "시설명": "대성베르힐경로당", "시설유형": "특정계층이용시설", "주소": "광주광역시 동구 용산2길 8 (용산동, 대성베르힐)", "시간": null, "구분": "특정인 이용가능" }, "geometry": { "type": "Point", "coordinates": [ 126.923303677650509, 35.118681956084387 ] } },
{ "type": "Feature", "properties": { "fid": 3242, "시설명": "대성베르힐경로당", "시설유형": "특정계층이용시설", "주소": "광주광역시 동구 용산2길 8 (용산동, 대성베르힐)", "시간": null, "구분": "특정인 이용가능" }, "geometry": { "type": "Point", "coordinates": [ 126.923303677650509, 35.118681956084387 ] } },
{ "type": "Feature", "properties": { "fid": 3254, "시설명": "한국경로당", "시설유형": "특정계층이용시설", "주소": "광주광역시 동구 화산로 352", "시간": null, "구분": "특정인 이용가능" }, "geometry": { "type": "Point", "coordinates": [ 126.932932240577983, 35.119290850850341 ] } },
{ "type": "Feature", "properties": { "fid": 3247, "시설명": "한국경로당", "시설유형": "특정계층이용시설", "주소": "광주광역시 동구 화산로 352", "시간": null, "구분": "특정인 이용가능" }, "geometry": { "type": "Point", "coordinates": [ 126.932932240577983, 35.119290850850341 ] } },
{ "type": "Feature", "properties": { "fid": 3255, "시설명": "용강경로당", "시설유형": "특정계층이용시설", "주소": "광주광역시 동구 화산로337번길 1 (용산동)", "시간": null, "구분": "특정인 이용가능" }, "geometry": { "type": "Point", "coordinates": [ 126.930950701439741, 35.11935263157838 ] } },
{ "type": "Feature", "properties": { "fid": 3245, "시설명": "용강경로당", "시설유형": "특정계층이용시설", "주소": "광주광역시 동구 화산로337번길 1 (용산동)", "시간": null, "구분": "특정인 이용가능" }, "geometry": { "type": "Point", "coordinates": [ 126.930950701439741, 35.11935263157838 ] } },
{ "type": "Feature", "properties": { "fid": 3276, "시설명": "아이조움경로당", "시설유형": "특정계층이용시설", "주소": "광주광역시 동구 남문로 550", "시간": null, "구분": "특정인 이용가능" }, "geometry": { "type": "Point", "coordinates": [ 126.934192889532071, 35.120124942049031 ] } },
{ "type": "Feature", "properties": { "fid": 3285, "시설명": "아이조움경로당", "시설유형": "특정계층이용시설", "주소": "광주광역시 동구 남문로 550", "시간": null, "구분": "특정인 이용가능" }, "geometry": { "type": "Point", "coordinates": [ 126.934192889532071, 35.120124942049031 ] } },
{ "type": "Feature", "properties": { "fid": 3240, "시설명": "계룡리슈빌아파트경로당", "시설유형": "특정계층이용시설", "주소": "광주광역시 동구 용산1길 2 (용산동, 계룡리슈빌 더 포레스트)", "시간": null, "구분": "특정인 이용가능" }, "geometry": { "type": "Point", "coordinates": [ 126.924936611993701, 35.120303618576045 ] } },
{ "type": "Feature", "properties": { "fid": 3271, "시설명": "계룡리슈빌아파트경로당", "시설유형": "특정계층이용시설", "주소": "광주광역시 동구 용산1길 2 (용산동, 계룡리슈빌 더 포레스트)", "시간": null, "구분": "특정인 이용가능" }, "geometry": { "type": "Point", "coordinates": [ 126.924936611993701, 35.120303618576045 ] } },
{ "type": "Feature", "properties": { "fid": 3225, "시설명": "지원2동행정복지센터", "시설유형": "공공시설", "주소": "광주광역시 동구 화산로 361", "시간": null, "구분": "누구나 이용가능" }, "geometry": { "type": "Point", "coordinates": [ 126.932851286252301, 35.120454207157742 ] } },
{ "type": "Feature", "properties": { "fid": 3226, "시설명": "지원2동행정복지센터", "시설유형": "공공시설", "주소": "광주광역시 동구 화산로 361", "시간": null, "구분": "누구나 이용가능" }, "geometry": { "type": "Point", "coordinates": [ 126.932851286252301, 35.120454207157742 ] } },
{ "type": "Feature", "properties": { "fid": 3288, "시설명": "지원2동작은도서관", "시설유형": "공공시설", "주소": "광주광역시 동구 화산로 361", "시간": null, "구분": "누구나 이용가능" }, "geometry": { "type": "Point", "coordinates": [ 126.932851286252301, 35.120454207157742 ] } },
{ "type": "Feature", "properties": { "fid": 3289, "시설명": "빛고을종합사회복지관", "시설유형": "공공시설", "주소": "광주광역시 동구 천변좌로 656", "시간": null, "구분": "누구나 이용가능" }, "geometry": { "type": "Point", "coordinates": [ 126.935134823069063, 35.113198832167548 ] } },
{ "type": "Feature", "properties": { "fid": 3290, "시설명": "지원2동작은도서관", "시설유형": "공공시설", "주소": "광주광역시 동구 화산로 361", "시간": null, "구분": "누구나 이용가능" }, "geometry": { "type": "Point", "coordinates": [ 126.932851286252301, 35.120454207157742 ] } },
{ "type": "Feature", "properties": { "fid": 2984, "시설명": "삼성경로당", "시설유형": "특정계층이용시설", "주소": "광주광역시 동구 제봉로138번길 8-11", "시간": null, "구분": "특정인 이용가능" }, "geometry": { "type": "Point", "coordinates": [ 126.922250031661818, 35.150028827312774 ] } },
{ "type": "Feature", "properties": { "fid": 2995, "시설명": "삼성경로당", "시설유형": "특정계층이용시설", "주소": "광주광역시 동구 제봉로138번길 8-11", "시간": null, "구분": "특정인 이용가능" }, "geometry": { "type": "Point", "coordinates": [ 126.922250031661818, 35.150028827312774 ] } },
{ "type": "Feature", "properties": { "fid": 3000, "시설명": "동구노인종합복지관", "시설유형": "특정계층이용시설", "주소": "광주광역시 동구  동명로20번길  10   (동명동)", "시간": null, "구분": "특정인 이용가능" }, "geometry": { "type": "Point", "coordinates": [ 126.924388692396903, 35.150486090717031 ] } },
{ "type": "Feature", "properties": { "fid": 3004, "시설명": "동구노인종합복지관", "시설유형": "특정계층이용시설", "주소": "광주광역시 동구  동명로20번길  10   (동명동)", "시간": null, "구분": "특정인 이용가능" }, "geometry": { "type": "Point", "coordinates": [ 126.924388692396903, 35.150486090717031 ] } },
{ "type": "Feature", "properties": { "fid": 3009, "시설명": "동명동행정복지센터", "시설유형": "공공시설", "주소": "광주광역시 동구 동명로26번길 13", "시간": null, "구분": "누구나 이용가능" }, "geometry": { "type": "Point", "coordinates": [ 126.925146324394447, 35.151210219608956 ] } },
{ "type": "Feature", "properties": { "fid": 3010, "시설명": "동명동행정복지센터", "시설유형": "공공시설", "주소": "광주광역시 동구 동명로26번길 13", "시간": null, "구분": "누구나 이용가능" }, "geometry": { "type": "Point", "coordinates": [ 126.925146324394447, 35.151210219608956 ] } },
{ "type": "Feature", "properties": { "fid": 3003, "시설명": "동심경로당", "시설유형": "특정계층이용시설", "주소": "광주광역시 동구  동계천로85번길  10-20  (동명동)", "시간": null, "구분": "특정인 이용가능" }, "geometry": { "type": "Point", "coordinates": [ 126.921736477815401, 35.152582495527923 ] } },
{ "type": "Feature", "properties": { "fid": 3007, "시설명": "동심경로당", "시설유형": "특정계층이용시설", "주소": "광주광역시 동구  동계천로85번길  10-20  (동명동)", "시간": null, "구분": "특정인 이용가능" }, "geometry": { "type": "Point", "coordinates": [ 126.921736477815401, 35.152582495527923 ] } },
{ "type": "Feature", "properties": { "fid": 3062, "시설명": "산수경로당", "시설유형": "특정계층이용시설", "주소": "광주광역시 동구 산수동 산수길  8   (산수동)", "시간": null, "구분": "특정인 이용가능" }, "geometry": { "type": "Point", "coordinates": [ 126.928044948649585, 35.154834247084203 ] } },
{ "type": "Feature", "properties": { "fid": 3055, "시설명": "산수경로당", "시설유형": "특정계층이용시설", "주소": "광주광역시 동구 산수동 산수길  8   (산수동)", "시간": null, "구분": "특정인 이용가능" }, "geometry": { "type": "Point", "coordinates": [ 126.928044948649585, 35.154834247084203 ] } },
{ "type": "Feature", "properties": { "fid": 3056, "시설명": "무등산그린웰로제비앙아파트경로당", "시설유형": "특정계층이용시설", "주소": "광주광역시 동구 동계로 38 (산수동, 무등산 그린웰로제비앙)", "시간": null, "구분": "특정인 이용가능" }, "geometry": { "type": "Point", "coordinates": [ 126.925318676963769, 35.155238999588654 ] } },
{ "type": "Feature", "properties": { "fid": 3058, "시설명": "무등산그린웰로제비앙아파트경로당", "시설유형": "특정계층이용시설", "주소": "광주광역시 동구 동계로 38 (산수동, 무등산 그린웰로제비앙)", "시간": null, "구분": "특정인 이용가능" }, "geometry": { "type": "Point", "coordinates": [ 126.925318676963769, 35.155238999588654 ] } },
{ "type": "Feature", "properties": { "fid": 3042, "시설명": "천수경로당", "시설유형": "특정계층이용시설", "주소": "광주광역시 동구  계림로20번길  7   (계림동)", "시간": null, "구분": "특정인 이용가능" }, "geometry": { "type": "Point", "coordinates": [ 126.923028411898684, 35.155887136930552 ] } },
{ "type": "Feature", "properties": { "fid": 3033, "시설명": "천수경로당", "시설유형": "특정계층이용시설", "주소": "광주광역시 동구  계림로20번길  7   (계림동)", "시간": null, "구분": "특정인 이용가능" }, "geometry": { "type": "Point", "coordinates": [ 126.923028411898684, 35.155887136930552 ] } },
{ "type": "Feature", "properties": { "fid": 3029, "시설명": "두산위브더파크아파트경로당", "시설유형": "특정계층이용시설", "주소": "광주광역시 동구 중앙로290번길 16 (계림동, 두산위브더파크)", "시간": null, "구분": "특정인 이용가능" }, "geometry": { "type": "Point", "coordinates": [ 126.922117767999168, 35.15658428346903 ] } },
{ "type": "Feature", "properties": { "fid": 3041, "시설명": "두산위브더파크아파트경로당", "시설유형": "특정계층이용시설", "주소": "광주광역시 동구 중앙로290번길 16 (계림동, 두산위브더파크)", "시간": null, "구분": "특정인 이용가능" }, "geometry": { "type": "Point", "coordinates": [ 126.922117767999168, 35.15658428346903 ] } },
{ "type": "Feature", "properties": { "fid": 3030, "시설명": "푸른길두산위브경로당", "시설유형": "특정계층이용시설", "주소": "광주광역시 동구 계림로30번길 15 (계림동, 푸른길 두산위브)", "시간": null, "구분": "특정인 이용가능" }, "geometry": { "type": "Point", "coordinates": [ 126.924576848120097, 35.157391569898849 ] } },
{ "type": "Feature", "properties": { "fid": 3039, "시설명": "푸른길두산위브경로당", "시설유형": "특정계층이용시설", "주소": "광주광역시 동구 계림로30번길 15 (계림동, 푸른길 두산위브)", "시간": null, "구분": "특정인 이용가능" }, "geometry": { "type": "Point", "coordinates": [ 126.924576848120097, 35.157391569898849 ] } },
{ "type": "Feature", "properties": { "fid": 3050, "시설명": "계림2동행정복지센터", "시설유형": "공공시설", "주소": "광주광역시 동구 계림동 1842", "시간": null, "구분": "누구나 이용가능" }, "geometry": { "type": "Point", "coordinates": [ 126.923580820761217, 35.157918267549576 ] } },
{ "type": "Feature", "properties": { "fid": 3049, "시설명": "계림2동행정복지센터", "시설유형": "공공시설", "주소": "광주광역시 동구 동계로 68", "시간": null, "구분": "누구나 이용가능" }, "geometry": { "type": "Point", "coordinates": [ 126.923881889153975, 35.158341095599368 ] } },
{ "type": "Feature", "properties": { "fid": 3037, "시설명": "구구팔팔대명경로당", "시설유형": "특정계층이용시설", "주소": "광주광역시 동구 계림로 51-26", "시간": null, "구분": "특정인 이용가능" }, "geometry": { "type": "Point", "coordinates": [ 126.923353283582628, 35.158694077118192 ] } },
{ "type": "Feature", "properties": { "fid": 3032, "시설명": "구구팔팔대명경로당", "시설유형": "특정계층이용시설", "주소": "광주광역시 동구 계림로 51-26", "시간": null, "구분": "특정인 이용가능" }, "geometry": { "type": "Point", "coordinates": [ 126.923353283582628, 35.158694077118192 ] } },
{ "type": "Feature", "properties": { "fid": 3034, "시설명": "이화경로당", "시설유형": "특정계층이용시설", "주소": "광주광역시 동구 산수길39번길 29 (계림동)", "시간": null, "구분": "특정인 이용가능" }, "geometry": { "type": "Point", "coordinates": [ 126.926172660871927, 35.159072534184432 ] } },
{ "type": "Feature", "properties": { "fid": 3043, "시설명": "이화경로당", "시설유형": "특정계층이용시설", "주소": "광주광역시 동구 산수길39번길 29 (계림동)", "시간": null, "구분": "특정인 이용가능" }, "geometry": { "type": "Point", "coordinates": [ 126.926172660871927, 35.159072534184432 ] } },
{ "type": "Feature", "properties": { "fid": 3040, "시설명": "두산위브경로당", "시설유형": "특정계층이용시설", "주소": "광주광역시 동구  무등로  374 , 상가 (계림동)", "시간": null, "구분": "특정인 이용가능" }, "geometry": { "type": "Point", "coordinates": [ 126.92381852749584, 35.159512262699415 ] } },
{ "type": "Feature", "properties": { "fid": 3031, "시설명": "두산위브경로당", "시설유형": "특정계층이용시설", "주소": "광주광역시 동구  무등로  374 , 상가 (계림동)", "시간": null, "구분": "특정인 이용가능" }, "geometry": { "type": "Point", "coordinates": [ 126.92381852749584, 35.159512262699415 ] } },
{ "type": "Feature", "properties": { "fid": 3027, "시설명": "참판경로당", "시설유형": "특정계층이용시설", "주소": "광주광역시 동구 참판로26번길 16-1  (계림동)", "시간": null, "구분": "특정인 이용가능" }, "geometry": { "type": "Point", "coordinates": [ 126.928961016103202, 35.160958032827772 ] } },
{ "type": "Feature", "properties": { "fid": 3046, "시설명": "참판경로당", "시설유형": "특정계층이용시설", "주소": "광주광역시 동구 참판로26번길 16-1  (계림동)", "시간": null, "구분": "특정인 이용가능" }, "geometry": { "type": "Point", "coordinates": [ 126.928961016103202, 35.160958032827772 ] } },
{ "type": "Feature", "properties": { "fid": 3038, "시설명": "계림아이파크sk뷰경로당", "시설유형": "특정계층이용시설", "주소": "광주광역시 동구 필문대로 70 (계림동, 계림아이파크SK뷰)", "시간": null, "구분": "특정인 이용가능" }, "geometry": { "type": "Point", "coordinates": [ 126.926008106630135, 35.16171385428607 ] } },
{ "type": "Feature", "properties": { "fid": 3028, "시설명": "계림아이파크sk뷰경로당", "시설유형": "특정계층이용시설", "주소": "광주광역시 동구 필문대로 70 (계림동, 계림아이파크SK뷰)", "시간": null, "구분": "특정인 이용가능" }, "geometry": { "type": "Point", "coordinates": [ 126.926008106630135, 35.16171385428607 ] } },
{ "type": "Feature", "properties": { "fid": 3916, "시설명": "방림2동경로당", "시설유형": "특정계층이용시설", "주소": "광주광역시 남구 천변좌로566번라길 3-2", "시간": null, "구분": "특정인 이용가능" }, "geometry": { "type": "Point", "coordinates": [ 126.921919613985622, 35.131164746412935 ] } },
{ "type": "Feature", "properties": { "fid": 3911, "시설명": "방림2동쌈지경로당", "시설유형": "특정계층이용시설", "주소": "광주광역시 남구 큰방림길 64 (방림동)", "시간": null, "구분": "특정인 이용가능" }, "geometry": { "type": "Point", "coordinates": [ 126.924260907338891, 35.129684708972697 ] } },
{ "type": "Feature", "properties": { "fid": 3148, "시설명": "백화아파트경로당", "시설유형": "특정계층이용시설", "주소": "광주광역시 동구 학동 천변우로  603   (학동, 백화아파트)", "시간": null, "구분": "특정인 이용가능" }, "geometry": { "type": "Point", "coordinates": [ 126.926630396815952, 35.130611823089069 ] } },
{ "type": "Feature", "properties": { "fid": 3139, "시설명": "백화아파트경로당", "시설유형": "특정계층이용시설", "주소": "광주광역시 동구 학동 천변우로  603   (학동, 백화아파트)", "시간": null, "구분": "특정인 이용가능" }, "geometry": { "type": "Point", "coordinates": [ 126.926630396815952, 35.130611823089069 ] } },
{ "type": "Feature", "properties": { "fid": 3149, "시설명": "학2마을경로당", "시설유형": "특정계층이용시설", "주소": "광주광역시 동구 남문로693번길 11 (학동, 무등산리버파크)", "시간": null, "구분": "특정인 이용가능" }, "geometry": { "type": "Point", "coordinates": [ 126.927654145762432, 35.130911931891283 ] } },
{ "type": "Feature", "properties": { "fid": 3144, "시설명": "학2마을경로당", "시설유형": "특정계층이용시설", "주소": "광주광역시 동구 남문로693번길 11 (학동, 무등산리버파크)", "시간": null, "구분": "특정인 이용가능" }, "geometry": { "type": "Point", "coordinates": [ 126.927654145762432, 35.130911931891283 ] } },
{ "type": "Feature", "properties": { "fid": 3159, "시설명": "광주은행학동(출)", "시설유형": "생활밀착민간시설", "주소": "광주광역시 동구 남문로 698", "시간": null, "구분": "누구나 이용가능" }, "geometry": { "type": "Point", "coordinates": [ 126.928638975178629, 35.132959688290974 ] } },
{ "type": "Feature", "properties": { "fid": 3157, "시설명": "광주은행학동(출)", "시설유형": "생활밀착민간시설", "주소": "광주광역시 동구 남문로 698", "시간": null, "구분": "누구나 이용가능" }, "geometry": { "type": "Point", "coordinates": [ 126.928638975178629, 35.132959688290974 ] } },
{ "type": "Feature", "properties": { "fid": 3158, "시설명": "광주은행학운동점", "시설유형": "생활밀착민간시설", "주소": "광주광역시 동구 남문로 678", "시간": null, "구분": "누구나 이용가능" }, "geometry": { "type": "Point", "coordinates": [ 126.929392839573921, 35.131281626321503 ] } },
{ "type": "Feature", "properties": { "fid": 3160, "시설명": "광주은행학운동점", "시설유형": "생활밀착민간시설", "주소": "광주광역시 동구 남문로 678", "시간": null, "구분": "누구나 이용가능" }, "geometry": { "type": "Point", "coordinates": [ 126.929392839573921, 35.131281626321503 ] } },
{ "type": "Feature", "properties": { "fid": 3166, "시설명": "삼익세라믹경로당", "시설유형": "특정계층이용시설", "주소": "광주광역시 동구 학동 남문로  676 , 삼익세라믹경로당 (학동, 삼익세라믹아파트)", "시간": null, "구분": "특정인 이용가능" }, "geometry": { "type": "Point", "coordinates": [ 126.930199914790492, 35.131285423527466 ] } },
{ "type": "Feature", "properties": { "fid": 3185, "시설명": "삼익세라믹경로당", "시설유형": "특정계층이용시설", "주소": "광주광역시 동구 학동 남문로  676 , 삼익세라믹경로당 (학동, 삼익세라믹아파트)", "시간": null, "구분": "특정인 이용가능" }, "geometry": { "type": "Point", "coordinates": [ 126.930199914790492, 35.131285423527466 ] } },
{ "type": "Feature", "properties": { "fid": 3189, "시설명": "아남경로당", "시설유형": "특정계층이용시설", "주소": "광주광역시 동구 의재로 23-8", "시간": null, "구분": "특정인 이용가능" }, "geometry": { "type": "Point", "coordinates": [ 126.930653261239669, 35.133861711573282 ] } },
{ "type": "Feature", "properties": { "fid": 3175, "시설명": "아남경로당", "시설유형": "특정계층이용시설", "주소": "광주광역시 동구 의재로 23-8", "시간": null, "구분": "특정인 이용가능" }, "geometry": { "type": "Point", "coordinates": [ 126.930653261239669, 35.133861711573282 ] } },
{ "type": "Feature", "properties": { "fid": 3170, "시설명": "평화맨션경로당", "시설유형": "특정계층이용시설", "주소": "광주광역시 동구 학소로 125 (학동, 평화맨션)", "시간": null, "구분": "특정인 이용가능" }, "geometry": { "type": "Point", "coordinates": [ 126.931484008524762, 35.131390183807895 ] } },
{ "type": "Feature", "properties": { "fid": 3193, "시설명": "평화맨션경로당", "시설유형": "특정계층이용시설", "주소": "광주광역시 동구 학소로 125 (학동, 평화맨션)", "시간": null, "구분": "특정인 이용가능" }, "geometry": { "type": "Point", "coordinates": [ 126.931484008524762, 35.131390183807895 ] } },
{ "type": "Feature", "properties": { "fid": 3191, "시설명": "원머리경로당", "시설유형": "특정계층이용시설", "주소": "광주광역시 동구 증심천로33번길 10  (학동)", "시간": null, "구분": "특정인 이용가능" }, "geometry": { "type": "Point", "coordinates": [ 126.933345615087404, 35.131180400225901 ] } },
{ "type": "Feature", "properties": { "fid": 3167, "시설명": "원머리경로당", "시설유형": "특정계층이용시설", "주소": "광주광역시 동구 증심천로33번길 10  (학동)", "시간": null, "구분": "특정인 이용가능" }, "geometry": { "type": "Point", "coordinates": [ 126.933345615087404, 35.131180400225901 ] } },
{ "type": "Feature", "properties": { "fid": 3161, "시설명": "학운동행정복지센터", "시설유형": "공공시설", "주소": "광주광역시 동구 의재로 53", "시간": null, "구분": "누구나 이용가능" }, "geometry": { "type": "Point", "coordinates": [ 126.933529888627547, 35.13248571166725 ] } },
{ "type": "Feature", "properties": { "fid": 3162, "시설명": "학운동행정복지센터", "시설유형": "공공시설", "주소": "광주광역시 동구 의재로 53", "시간": null, "구분": "누구나 이용가능" }, "geometry": { "type": "Point", "coordinates": [ 126.933529888627547, 35.13248571166725 ] } },
{ "type": "Feature", "properties": { "fid": 3202, "시설명": "학운동작은도서관", "시설유형": "공공시설", "주소": "광주광역시 동구 의재로43번길 27-3", "시간": null, "구분": "누구나 이용가능" }, "geometry": { "type": "Point", "coordinates": [ 126.934810131221553, 35.133177612208847 ] } },
{ "type": "Feature", "properties": { "fid": 3201, "시설명": "학운동작은도서관", "시설유형": "공공시설", "주소": "광주광역시 동구 의재로43번길 27-3", "시간": null, "구분": "누구나 이용가능" }, "geometry": { "type": "Point", "coordinates": [ 126.934810131221553, 35.133177612208847 ] } },
{ "type": "Feature", "properties": { "fid": 3174, "시설명": "미양부녀경로당", "시설유형": "특정계층이용시설", "주소": "광주광역시 동구 의재로43번길 35-4", "시간": null, "구분": "특정인 이용가능" }, "geometry": { "type": "Point", "coordinates": [ 126.935219976372878, 35.132549543534331 ] } },
{ "type": "Feature", "properties": { "fid": 3194, "시설명": "연안경로당", "시설유형": "특정계층이용시설", "주소": "광주광역시 동구  의재로43번길  35-4  (학동)", "시간": null, "구분": "특정인 이용가능" }, "geometry": { "type": "Point", "coordinates": [ 126.935219976372878, 35.132549543534331 ] } },
{ "type": "Feature", "properties": { "fid": 3168, "시설명": "연안경로당", "시설유형": "특정계층이용시설", "주소": "광주광역시 동구  의재로43번길  35-4  (학동)", "시간": null, "구분": "특정인 이용가능" }, "geometry": { "type": "Point", "coordinates": [ 126.935219976372878, 35.132549543534331 ] } },
{ "type": "Feature", "properties": { "fid": 3190, "시설명": "미양부녀경로당", "시설유형": "특정계층이용시설", "주소": "광주광역시 동구 의재로43번길 35-4", "시간": null, "구분": "특정인 이용가능" }, "geometry": { "type": "Point", "coordinates": [ 126.935219976372878, 35.132549543534331 ] } },
{ "type": "Feature", "properties": { "fid": 3192, "시설명": "현대아파트경로당", "시설유형": "특정계층이용시설", "주소": "광주광역시 동구 증심천로89번길 16 (학동, 현대아파트)", "시간": null, "구분": "특정인 이용가능" }, "geometry": { "type": "Point", "coordinates": [ 126.935270921517386, 35.134691482989894 ] } },
{ "type": "Feature", "properties": { "fid": 3171, "시설명": "현대아파트경로당", "시설유형": "특정계층이용시설", "주소": "광주광역시 동구 증심천로89번길 16 (학동, 현대아파트)", "시간": null, "구분": "특정인 이용가능" }, "geometry": { "type": "Point", "coordinates": [ 126.935270921517386, 35.134691482989894 ] } },
{ "type": "Feature", "properties": { "fid": 3924, "시설명": "방림2동쌈지경로당", "시설유형": "특정계층이용시설", "주소": "광주광역시 남구 큰방림길 64 (방림동)", "시간": null, "구분": "특정인 이용가능" }, "geometry": { "type": "Point", "coordinates": [ 126.924260907338891, 35.129684708972697 ] } },
{ "type": "Feature", "properties": { "fid": 3926, "시설명": "방림2동경로당", "시설유형": "특정계층이용시설", "주소": "광주광역시 남구 천변좌로566번라길 3-2", "시간": null, "구분": "특정인 이용가능" }, "geometry": { "type": "Point", "coordinates": [ 126.921919613985622, 35.131164746412935 ] } },
{ "type": "Feature", "properties": { "fid": 3928, "시설명": "방림2동행정복지센터", "시설유형": "공공시설", "주소": "광주광역시 남구 천변좌로566번다길 12 (방림동)", "시간": null, "구분": "누구나 이용가능" }, "geometry": { "type": "Point", "coordinates": [ 126.922000346566378, 35.131901821819596 ] } },
{ "type": "Feature", "properties": { "fid": 3929, "시설명": "방림2동행정복지센터", "시설유형": "공공시설", "주소": "광주광역시 남구 천변좌로566번다길 12 (방림동)", "시간": null, "구분": "누구나 이용가능" }, "geometry": { "type": "Point", "coordinates": [ 126.922000346566378, 35.131901821819596 ] } },
{ "type": "Feature", "properties": { "fid": 3931, "시설명": "방림2동작은도서관", "시설유형": "공공시설", "주소": "광주광역시 남구 큰방림길 36", "시간": null, "구분": "누구나 이용가능" }, "geometry": { "type": "Point", "coordinates": [ 126.922793356694442, 35.131958977451895 ] } },
{ "type": "Feature", "properties": { "fid": 3932, "시설명": "방림2동작은도서관", "시설유형": "공공시설", "주소": "광주광역시 남구 큰방림길 36", "시간": null, "구분": "누구나 이용가능" }, "geometry": { "type": "Point", "coordinates": [ 126.922793356694442, 35.131958977451895 ] } },
{ "type": "Feature", "properties": { "fid": 3140, "시설명": "학1마을경로당", "시설유형": "특정계층이용시설", "주소": "광주광역시 동구 남문로 734", "시간": null, "구분": "특정인 이용가능" }, "geometry": { "type": "Point", "coordinates": [ 126.926465524627218, 35.136056336643925 ] } },
{ "type": "Feature", "properties": { "fid": 3147, "시설명": "학1마을경로당", "시설유형": "특정계층이용시설", "주소": "광주광역시 동구 남문로 734", "시간": null, "구분": "특정인 이용가능" }, "geometry": { "type": "Point", "coordinates": [ 126.926465524627218, 35.136056336643925 ] } },
{ "type": "Feature", "properties": { "fid": 3154, "시설명": "학동행정복지센터", "시설유형": "공공시설", "주소": "광주광역시 동구 남문로753번길 20 (학동, 무등산 아이파크)", "시간": null, "구분": "누구나 이용가능" }, "geometry": { "type": "Point", "coordinates": [ 126.923056046516621, 35.137411553772488 ] } },
{ "type": "Feature", "properties": { "fid": 3152, "시설명": "학동행정복지센터", "시설유형": "공공시설", "주소": "광주광역시 동구 남문로753번길 20 (학동, 무등산 아이파크)", "시간": null, "구분": "누구나 이용가능" }, "geometry": { "type": "Point", "coordinates": [ 126.923056046516621, 35.137411553772488 ] } },
{ "type": "Feature", "properties": { "fid": 3145, "시설명": "무등산IPARK경로당", "시설유형": "특정계층이용시설", "주소": "광주광역시 동구 남문로753번길 20", "시간": null, "구분": "특정인 이용가능" }, "geometry": { "type": "Point", "coordinates": [ 126.923056046516621, 35.137411553772488 ] } },
{ "type": "Feature", "properties": { "fid": 3142, "시설명": "무등산IPARK경로당", "시설유형": "특정계층이용시설", "주소": "광주광역시 동구 남문로753번길 20", "시간": null, "구분": "특정인 이용가능" }, "geometry": { "type": "Point", "coordinates": [ 126.923056046516621, 35.137411553772488 ] } },
{ "type": "Feature", "properties": { "fid": 3141, "시설명": "학동경로당", "시설유형": "특정계층이용시설", "주소": "광주광역시 동구 남문로754번길 14-4", "시간": null, "구분": "특정인 이용가능" }, "geometry": { "type": "Point", "coordinates": [ 126.92514440599831, 35.138351718494739 ] } },
{ "type": "Feature", "properties": { "fid": 3143, "시설명": "학수경로당", "시설유형": "특정계층이용시설", "주소": "광주광역시 동구 남문로754번길 14-4", "시간": null, "구분": "특정인 이용가능" }, "geometry": { "type": "Point", "coordinates": [ 126.92514440599831, 35.138351718494739 ] } },
{ "type": "Feature", "properties": { "fid": 3150, "시설명": "학동경로당", "시설유형": "특정계층이용시설", "주소": "광주광역시 동구 남문로754번길 14-4", "시간": null, "구분": "특정인 이용가능" }, "geometry": { "type": "Point", "coordinates": [ 126.92514440599831, 35.138351718494739 ] } },
{ "type": "Feature", "properties": { "fid": 3146, "시설명": "학수경로당", "시설유형": "특정계층이용시설", "주소": "광주광역시 동구 남문로754번길 14-4", "시간": null, "구분": "특정인 이용가능" }, "geometry": { "type": "Point", "coordinates": [ 126.92514440599831, 35.138351718494739 ] } },
{ "type": "Feature", "properties": { "fid": 3125, "시설명": "광주은행조대병원(출)", "시설유형": "생활밀착민간시설", "주소": "광주광역시 동구 필문대로 365 (학동)", "시간": null, "구분": "누구나 이용가능" }, "geometry": { "type": "Point", "coordinates": [ 126.926589823987797, 35.138767876530892 ] } },
{ "type": "Feature", "properties": { "fid": 3124, "시설명": "광주은행조대병원(출)", "시설유형": "생활밀착민간시설", "주소": "광주광역시 동구 필문대로 365 (학동)", "시간": null, "구분": "누구나 이용가능" }, "geometry": { "type": "Point", "coordinates": [ 126.926589823987797, 35.138767876530892 ] } },
{ "type": "Feature", "properties": { "fid": 3153, "시설명": "광주1호선남광주역", "시설유형": "공공시설", "주소": "광주광역시 동구 제봉로 지하1 (학동)", "시간": null, "구분": "누구나 이용가능" }, "geometry": { "type": "Point", "coordinates": [ 126.92249399703789, 35.139783700268659 ] } },
{ "type": "Feature", "properties": { "fid": 3151, "시설명": "광주1호선남광주역", "시설유형": "공공시설", "주소": "광주광역시 동구 제봉로 지하1 (학동)", "시간": null, "구분": "누구나 이용가능" }, "geometry": { "type": "Point", "coordinates": [ 126.92249399703789, 35.139783700268659 ] } },
{ "type": "Feature", "properties": { "fid": 3156, "시설명": "광주은행전대병원점", "시설유형": "생활밀착민간시설", "주소": "광주광역시 동구 제봉로 42", "시간": null, "구분": "누구나 이용가능" }, "geometry": { "type": "Point", "coordinates": [ 126.922229785775457, 35.141634995583956 ] } },
{ "type": "Feature", "properties": { "fid": 3155, "시설명": "광주은행전대병원점", "시설유형": "생활밀착민간시설", "주소": "광주광역시 동구 제봉로 42", "시간": null, "구분": "누구나 이용가능" }, "geometry": { "type": "Point", "coordinates": [ 126.922229785775457, 35.141634995583956 ] } },
{ "type": "Feature", "properties": { "fid": 3100, "시설명": "조대후문경로당", "시설유형": "특정계층이용시설", "주소": "광주광역시 동구 필문대로287번길 24-11 (지산동)", "시간": null, "구분": "특정인 이용가능" }, "geometry": { "type": "Point", "coordinates": [ 126.92951607751759, 35.144621449970188 ] } },
{ "type": "Feature", "properties": { "fid": 3098, "시설명": "도내기경로당", "시설유형": "특정계층이용시설", "주소": "광주광역시 동구 필문대로287번길 24-11", "시간": null, "구분": "특정인 이용가능" }, "geometry": { "type": "Point", "coordinates": [ 126.92951607751759, 35.144621449970188 ] } },
{ "type": "Feature", "properties": { "fid": 3096, "시설명": "도내기경로당", "시설유형": "특정계층이용시설", "주소": "광주광역시 동구 필문대로287번길 24-11", "시간": null, "구분": "특정인 이용가능" }, "geometry": { "type": "Point", "coordinates": [ 126.92951607751759, 35.144621449970188 ] } },
{ "type": "Feature", "properties": { "fid": 3095, "시설명": "조대후문경로당", "시설유형": "특정계층이용시설", "주소": "광주광역시 동구 필문대로287번길 24-11 (지산동)", "시간": null, "구분": "특정인 이용가능" }, "geometry": { "type": "Point", "coordinates": [ 126.92951607751759, 35.144621449970188 ] } },
{ "type": "Feature", "properties": { "fid": 3128, "시설명": "서남동행정복지센터", "시설유형": "공공시설", "주소": "광주광역시 동구 서남로 14", "시간": null, "구분": "누구나 이용가능" }, "geometry": { "type": "Point", "coordinates": [ 126.923157737848982, 35.144902326806992 ] } },
{ "type": "Feature", "properties": { "fid": 3127, "시설명": "서남동행정복지센터", "시설유형": "공공시설", "주소": "광주광역시 동구 서남로 14", "시간": null, "구분": "누구나 이용가능" }, "geometry": { "type": "Point", "coordinates": [ 126.923157737848982, 35.144902326806992 ] } },
{ "type": "Feature", "properties": { "fid": 3129, "시설명": "무등부녀경로당", "시설유형": "특정계층이용시설", "주소": "광주광역시 동구 백서로 191-2", "시간": null, "구분": "특정인 이용가능" }, "geometry": { "type": "Point", "coordinates": [ 126.92477914914106, 35.145258570201747 ] } },
{ "type": "Feature", "properties": { "fid": 3133, "시설명": "무등부녀경로당", "시설유형": "특정계층이용시설", "주소": "광주광역시 동구 백서로 191-2", "시간": null, "구분": "특정인 이용가능" }, "geometry": { "type": "Point", "coordinates": [ 126.92477914914106, 35.145258570201747 ] } },
{ "type": "Feature", "properties": { "fid": 3134, "시설명": "서석경로당", "시설유형": "특정계층이용시설", "주소": "광주광역시 동구  백서로  191-2  (서석동)", "시간": null, "구분": "특정인 이용가능" }, "geometry": { "type": "Point", "coordinates": [ 126.92477914914106, 35.145258570201747 ] } },
{ "type": "Feature", "properties": { "fid": 3130, "시설명": "서석경로당", "시설유형": "특정계층이용시설", "주소": "광주광역시 동구  백서로  191-2  (서석동)", "시간": null, "구분": "특정인 이용가능" }, "geometry": { "type": "Point", "coordinates": [ 126.92477914914106, 35.145258570201747 ] } },
{ "type": "Feature", "properties": { "fid": 3138, "시설명": "동구장애인복지관", "시설유형": "공공시설", "주소": "광주광역시 동구 백서로198번길 7 (서석동)", "시간": null, "구분": "누구나 이용가능" }, "geometry": { "type": "Point", "coordinates": [ 126.926060384054864, 35.145646714040225 ] } },
{ "type": "Feature", "properties": { "fid": 3137, "시설명": "동구장애인복지관", "시설유형": "공공시설", "주소": "광주광역시 동구 백서로198번길 7 (서석동)", "시간": null, "구분": "누구나 이용가능" }, "geometry": { "type": "Point", "coordinates": [ 126.926060384054864, 35.145646714040225 ] } },
{ "type": "Feature", "properties": { "fid": 3123, "시설명": "광주은행동구청(출)", "시설유형": "생활밀착민간시설", "주소": "광주광역시 동구 서남로 1", "시간": null, "구분": "누구나 이용가능" }, "geometry": { "type": "Point", "coordinates": [ 126.922992497144989, 35.146012099058922 ] } },
{ "type": "Feature", "properties": { "fid": 3126, "시설명": "광주은행동구청(출)", "시설유형": "생활밀착민간시설", "주소": "광주광역시 동구 서남로 1", "시간": null, "구분": "누구나 이용가능" }, "geometry": { "type": "Point", "coordinates": [ 126.922992497144989, 35.146012099058922 ] } },
{ "type": "Feature", "properties": { "fid": 3002, "시설명": "동명부녀경로당", "시설유형": "특정계층이용시설", "주소": "광주광역시 동구 백서로224번길 6-8", "시간": null, "구분": "특정인 이용가능" }, "geometry": { "type": "Point", "coordinates": [ 126.927215759159395, 35.147498048971322 ] } },
{ "type": "Feature", "properties": { "fid": 3008, "시설명": "동명부녀경로당", "시설유형": "특정계층이용시설", "주소": "광주광역시 동구 백서로224번길 6-8", "시간": null, "구분": "특정인 이용가능" }, "geometry": { "type": "Point", "coordinates": [ 126.927215759159395, 35.147498048971322 ] } },
{ "type": "Feature", "properties": { "fid": 3001, "시설명": "동명경로당", "시설유형": "특정계층이용시설", "주소": "광주광역시 동구  백서로224번길  8   (동명동)", "시간": null, "구분": "특정인 이용가능" }, "geometry": { "type": "Point", "coordinates": [ 126.927448615446195, 35.147829164334503 ] } },
{ "type": "Feature", "properties": { "fid": 3006, "시설명": "동명경로당", "시설유형": "특정계층이용시설", "주소": "광주광역시 동구  백서로224번길  8   (동명동)", "시간": null, "구분": "특정인 이용가능" }, "geometry": { "type": "Point", "coordinates": [ 126.927448615446195, 35.147829164334503 ] } },
{ "type": "Feature", "properties": { "fid": 3249, "시설명": "용산경로당", "시설유형": "특정계층이용시설", "주소": "광주광역시 동구 남문로565번길 3-3", "시간": null, "구분": "특정인 이용가능" }, "geometry": { "type": "Point", "coordinates": [ 126.932452554119493, 35.121593585600223 ] } },
{ "type": "Feature", "properties": { "fid": 3221, "시설명": "무등산골드클래스2차아파트경로당", "시설유형": "특정계층이용시설", "주소": "광주광역시 동구 남문로 589 (용산동, 무등산골드클래스2차)", "시간": null, "구분": "특정인 이용가능" }, "geometry": { "type": "Point", "coordinates": [ 126.931306623719735, 35.123986821646454 ] } },
{ "type": "Feature", "properties": { "fid": 3222, "시설명": "무등산골드클래스2차아파트경로당", "시설유형": "특정계층이용시설", "주소": "광주광역시 동구 남문로 589 (용산동, 무등산골드클래스2차)", "시간": null, "구분": "특정인 이용가능" }, "geometry": { "type": "Point", "coordinates": [ 126.931306623719735, 35.123986821646454 ] } },
{ "type": "Feature", "properties": { "fid": 3214, "시설명": "대아부녀경로당", "시설유형": "특정계층이용시설", "주소": "광주광역시 동구 지원로 35 (소태동, 대아아파트)", "시간": null, "구분": "특정인 이용가능" }, "geometry": { "type": "Point", "coordinates": [ 126.936050622905555, 35.124982109676019 ] } },
{ "type": "Feature", "properties": { "fid": 3207, "시설명": "대아부녀경로당", "시설유형": "특정계층이용시설", "주소": "광주광역시 동구 지원로 35 (소태동, 대아아파트)", "시간": null, "구분": "특정인 이용가능" }, "geometry": { "type": "Point", "coordinates": [ 126.936050622905555, 35.124982109676019 ] } },
{ "type": "Feature", "properties": { "fid": 3224, "시설명": "지원1동행정복지센터", "시설유형": "공공시설", "주소": "광주광역시 동구 지원로 31-9 (소태동)", "시간": null, "구분": "누구나 이용가능" }, "geometry": { "type": "Point", "coordinates": [ 126.935224023886747, 35.125299502456244 ] } },
{ "type": "Feature", "properties": { "fid": 3223, "시설명": "지원1동행정복지센터", "시설유형": "공공시설", "주소": "광주광역시 동구 지원로 31-9 (소태동)", "시간": null, "구분": "누구나 이용가능" }, "geometry": { "type": "Point", "coordinates": [ 126.935224023886747, 35.125299502456244 ] } },
{ "type": "Feature", "properties": { "fid": 3215, "시설명": "백조경로당", "시설유형": "특정계층이용시설", "주소": "광주광역시 동구 학소로76번길 2 (소태동, 백조아파트)", "시간": null, "구분": "특정인 이용가능" }, "geometry": { "type": "Point", "coordinates": [ 126.934664162153112, 35.126382140740752 ] } },
{ "type": "Feature", "properties": { "fid": 3205, "시설명": "백조경로당", "시설유형": "특정계층이용시설", "주소": "광주광역시 동구 학소로76번길 2 (소태동, 백조아파트)", "시간": null, "구분": "특정인 이용가능" }, "geometry": { "type": "Point", "coordinates": [ 126.934664162153112, 35.126382140740752 ] } },
{ "type": "Feature", "properties": { "fid": 3220, "시설명": "모아미래도경로당", "시설유형": "특정계층이용시설", "주소": "광주광역시 동구  학소로76번길  14   (소태동, 모아미래도아파트)", "시간": null, "구분": "특정인 이용가능" }, "geometry": { "type": "Point", "coordinates": [ 126.936870457275504, 35.127031323649049 ] } },
{ "type": "Feature", "properties": { "fid": 3208, "시설명": "모아미래도경로당", "시설유형": "특정계층이용시설", "주소": "광주광역시 동구  학소로76번길  14   (소태동, 모아미래도아파트)", "시간": null, "구분": "특정인 이용가능" }, "geometry": { "type": "Point", "coordinates": [ 126.936870457275504, 35.127031323649049 ] } },
{ "type": "Feature", "properties": { "fid": 3210, "시설명": "석천경로당", "시설유형": "특정계층이용시설", "주소": "광주광역시 동구 학소로76번길 7-8 (소태동)", "시간": null, "구분": "특정인 이용가능" }, "geometry": { "type": "Point", "coordinates": [ 126.934816466511876, 35.127110665037286 ] } },
{ "type": "Feature", "properties": { "fid": 3217, "시설명": "석천경로당", "시설유형": "특정계층이용시설", "주소": "광주광역시 동구 학소로76번길 7-8 (소태동)", "시간": null, "구분": "특정인 이용가능" }, "geometry": { "type": "Point", "coordinates": [ 126.934816466511876, 35.127110665037286 ] } },
{ "type": "Feature", "properties": { "fid": 3213, "시설명": "세연경로당", "시설유형": "특정계층이용시설", "주소": "광주광역시 동구 남문로634번길 1-1 (소태동)", "시간": null, "구분": "특정인 이용가능" }, "geometry": { "type": "Point", "coordinates": [ 126.931572791719773, 35.127588868161538 ] } },
{ "type": "Feature", "properties": { "fid": 3204, "시설명": "세연경로당", "시설유형": "특정계층이용시설", "주소": "광주광역시 동구 남문로634번길 1-1 (소태동)", "시간": null, "구분": "특정인 이용가능" }, "geometry": { "type": "Point", "coordinates": [ 126.931572791719773, 35.127588868161538 ] } },
{ "type": "Feature", "properties": { "fid": 3211, "시설명": "버들여자경로당", "시설유형": "특정계층이용시설", "주소": "광주광역시 동구  천변좌로630번길  3   (소태동)", "시간": null, "구분": "특정인 이용가능" }, "geometry": { "type": "Point", "coordinates": [ 126.929407114333912, 35.12803920850989 ] } },
{ "type": "Feature", "properties": { "fid": 3212, "시설명": "버들여자경로당", "시설유형": "특정계층이용시설", "주소": "광주광역시 동구  천변좌로630번길  3   (소태동)", "시간": null, "구분": "특정인 이용가능" }, "geometry": { "type": "Point", "coordinates": [ 126.929407114333912, 35.12803920850989 ] } },
{ "type": "Feature", "properties": { "fid": 3219, "시설명": "버들남자경로당", "시설유형": "특정계층이용시설", "주소": "광주광역시 동구 소태동 천변좌로630번길  3   (소태동)", "시간": null, "구분": "특정인 이용가능" }, "geometry": { "type": "Point", "coordinates": [ 126.929407114333912, 35.12803920850989 ] } },
{ "type": "Feature", "properties": { "fid": 3203, "시설명": "버들남자경로당", "시설유형": "특정계층이용시설", "주소": "광주광역시 동구 소태동 천변좌로630번길  3   (소태동)", "시간": null, "구분": "특정인 이용가능" }, "geometry": { "type": "Point", "coordinates": [ 126.929407114333912, 35.12803920850989 ] } },
{ "type": "Feature", "properties": { "fid": 3209, "시설명": "무등산골드클래스1차아파트경로당", "시설유형": "특정계층이용시설", "주소": "광주광역시 동구 학소로 109", "시간": null, "구분": "특정인 이용가능" }, "geometry": { "type": "Point", "coordinates": [ 126.93137272009966, 35.129424496905351 ] } },
{ "type": "Feature", "properties": { "fid": 3218, "시설명": "무등산골드클래스1차아파트경로당", "시설유형": "특정계층이용시설", "주소": "광주광역시 동구 학소로 109", "시간": null, "구분": "특정인 이용가능" }, "geometry": { "type": "Point", "coordinates": [ 126.93137272009966, 35.129424496905351 ] } },
{ "type": "Feature", "properties": { "fid": 3270, "시설명": "용산경로당", "시설유형": "특정계층이용시설", "주소": "광주광역시 동구 남문로565번길 3-3", "시간": null, "구분": "특정인 이용가능" }, "geometry": { "type": "Point", "coordinates": [ 126.932452554119493, 35.121593585600223 ] } },
{ "type": "Feature", "properties": { "fid": 3274, "시설명": "무등산이편한세상아파트경로당", "시설유형": "특정계층이용시설", "주소": "광주광역시 동구 지원로42번길 10 (소태동)", "시간": null, "구분": "특정인 이용가능" }, "geometry": { "type": "Point", "coordinates": [ 126.937253024314671, 35.123486195369821 ] } },
{ "type": "Feature", "properties": { "fid": 3275, "시설명": "진아하이빌경로당", "시설유형": "특정계층이용시설", "주소": "광주광역시 동구 학소로42번길 12", "시간": null, "구분": "특정인 이용가능" }, "geometry": { "type": "Point", "coordinates": [ 126.935092058144818, 35.123529301724574 ] } },
{ "type": "Feature", "properties": { "fid": 3277, "시설명": "중앙경로당", "시설유형": "특정계층이용시설", "주소": "광주광역시 동구 지원로6번길 6-1 (소태동)", "시간": null, "구분": "특정인 이용가능" }, "geometry": { "type": "Point", "coordinates": [ 126.932980653214983, 35.123274023655661 ] } },
{ "type": "Feature", "properties": { "fid": 3278, "시설명": "삼태경로당", "시설유형": "특정계층이용시설", "주소": "광주광역시 동구 소태길3번길 31", "시간": null, "구분": "특정인 이용가능" }, "geometry": { "type": "Point", "coordinates": [ 126.936247236513921, 35.121566485147575 ] } },
{ "type": "Feature", "properties": { "fid": 3279, "시설명": "삼태부녀경로당", "시설유형": "특정계층이용시설", "주소": "광주광역시 동구 소태길3번길 31", "시간": null, "구분": "특정인 이용가능" }, "geometry": { "type": "Point", "coordinates": [ 126.936247236513921, 35.121566485147575 ] } },
{ "type": "Feature", "properties": { "fid": 3280, "시설명": "삼태부녀경로당", "시설유형": "특정계층이용시설", "주소": "광주광역시 동구 소태길3번길 31", "시간": null, "구분": "특정인 이용가능" }, "geometry": { "type": "Point", "coordinates": [ 126.936247236513921, 35.121566485147575 ] } },
{ "type": "Feature", "properties": { "fid": 3281, "시설명": "무등산이편한세상아파트경로당", "시설유형": "특정계층이용시설", "주소": "광주광역시 동구 지원로42번길 10 (소태동)", "시간": null, "구분": "특정인 이용가능" }, "geometry": { "type": "Point", "coordinates": [ 126.937253024314671, 35.123486195369821 ] } },
{ "type": "Feature", "properties": { "fid": 3282, "시설명": "삼태경로당", "시설유형": "특정계층이용시설", "주소": "광주광역시 동구 소태길3번길 31", "시간": null, "구분": "특정인 이용가능" }, "geometry": { "type": "Point", "coordinates": [ 126.936247236513921, 35.121566485147575 ] } },
{ "type": "Feature", "properties": { "fid": 3284, "시설명": "진아하이빌경로당", "시설유형": "특정계층이용시설", "주소": "광주광역시 동구 학소로42번길 12", "시간": null, "구분": "특정인 이용가능" }, "geometry": { "type": "Point", "coordinates": [ 126.935092058144818, 35.123529301724574 ] } },
{ "type": "Feature", "properties": { "fid": 3286, "시설명": "중앙경로당", "시설유형": "특정계층이용시설", "주소": "광주광역시 동구 지원로6번길 6-1 (소태동)", "시간": null, "구분": "특정인 이용가능" }, "geometry": { "type": "Point", "coordinates": [ 126.932980653214983, 35.123274023655661 ] } },
{ "type": "Feature", "properties": { "fid": 3070, "시설명": "장원부녀경로당", "시설유형": "특정계층이용시설", "주소": "광주광역시 동구 산수동 밤실로92번길  3   (산수동)", "시간": null, "구분": "특정인 이용가능" }, "geometry": { "type": "Point", "coordinates": [ 126.936597680330749, 35.155707752193706 ] } },
{ "type": "Feature", "properties": { "fid": 3086, "시설명": "장원부녀경로당", "시설유형": "특정계층이용시설", "주소": "광주광역시 동구 산수동 밤실로92번길  3   (산수동)", "시간": null, "구분": "특정인 이용가능" }, "geometry": { "type": "Point", "coordinates": [ 126.936597680330749, 35.155707752193706 ] } },
{ "type": "Feature", "properties": { "fid": 3065, "시설명": "무등파크경로당", "시설유형": "특정계층이용시설", "주소": "광주광역시 동구  무등로  548   (산수동, 무등파크맨션)", "시간": null, "구분": "특정인 이용가능" }, "geometry": { "type": "Point", "coordinates": [ 126.939521189062816, 35.156320626008544 ] } },
{ "type": "Feature", "properties": { "fid": 3083, "시설명": "무등파크경로당", "시설유형": "특정계층이용시설", "주소": "광주광역시 동구  무등로  548   (산수동, 무등파크맨션)", "시간": null, "구분": "특정인 이용가능" }, "geometry": { "type": "Point", "coordinates": [ 126.939521189062816, 35.156320626008544 ] } },
{ "type": "Feature", "properties": { "fid": 3053, "시설명": "산수반월경로당", "시설유형": "특정계층이용시설", "주소": "광주광역시 동구  필문대로  162-13  (산수동)", "시간": null, "구분": "특정인 이용가능" }, "geometry": { "type": "Point", "coordinates": [ 126.930898345314361, 35.156376358575237 ] } },
{ "type": "Feature", "properties": { "fid": 3060, "시설명": "산수반월경로당", "시설유형": "특정계층이용시설", "주소": "광주광역시 동구  필문대로  162-13  (산수동)", "시간": null, "구분": "특정인 이용가능" }, "geometry": { "type": "Point", "coordinates": [ 126.930898345314361, 35.156376358575237 ] } },
{ "type": "Feature", "properties": { "fid": 3075, "시설명": "광명경로당", "시설유형": "특정계층이용시설", "주소": "광주광역시 동구 무등로 532", "시간": null, "구분": "특정인 이용가능" }, "geometry": { "type": "Point", "coordinates": [ 126.938311244392423, 35.15638351972845 ] } },
{ "type": "Feature", "properties": { "fid": 3079, "시설명": "광명경로당", "시설유형": "특정계층이용시설", "주소": "광주광역시 동구 무등로 532", "시간": null, "구분": "특정인 이용가능" }, "geometry": { "type": "Point", "coordinates": [ 126.938311244392423, 35.15638351972845 ] } },
{ "type": "Feature", "properties": { "fid": 3087, "시설명": "광신프로그레스경로당", "시설유형": "특정계층이용시설", "주소": "광주광역시 동구 밤실로 100", "시간": null, "구분": "특정인 이용가능" }, "geometry": { "type": "Point", "coordinates": [ 126.936362337620551, 35.15694646997509 ] } },
{ "type": "Feature", "properties": { "fid": 3073, "시설명": "광신프로그레스경로당", "시설유형": "특정계층이용시설", "주소": "광주광역시 동구 밤실로 100", "시간": null, "구분": "특정인 이용가능" }, "geometry": { "type": "Point", "coordinates": [ 126.936362337620551, 35.15694646997509 ] } },
{ "type": "Feature", "properties": { "fid": 3052, "시설명": "산수1동행정복지센터", "시설유형": "공공시설", "주소": "광주광역시 동구 무등로449번길 12", "시간": null, "구분": "누구나 이용가능" }, "geometry": { "type": "Point", "coordinates": [ 126.930723969772444, 35.157286034311738 ] } },
{ "type": "Feature", "properties": { "fid": 3051, "시설명": "산수1동행정복지센터", "시설유형": "공공시설", "주소": "광주광역시 동구 무등로449번길 12", "시간": null, "구분": "누구나 이용가능" }, "geometry": { "type": "Point", "coordinates": [ 126.930723969772444, 35.157286034311738 ] } },
{ "type": "Feature", "properties": { "fid": 3066, "시설명": "산수2동경로당", "시설유형": "특정계층이용시설", "주소": "광주광역시 동구  필문대로153번길  9-3  (산수동)", "시간": null, "구분": "특정인 이용가능" }, "geometry": { "type": "Point", "coordinates": [ 126.932468887532366, 35.157381732062142 ] } },
{ "type": "Feature", "properties": { "fid": 3082, "시설명": "산수2동부녀경로당", "시설유형": "특정계층이용시설", "주소": "광주광역시 동구  필문대로153번길  9-3  (산수동)", "시간": null, "구분": "특정인 이용가능" }, "geometry": { "type": "Point", "coordinates": [ 126.932468887532366, 35.157381732062142 ] } },
{ "type": "Feature", "properties": { "fid": 3081, "시설명": "산수2동경로당", "시설유형": "특정계층이용시설", "주소": "광주광역시 동구  필문대로153번길  9-3  (산수동)", "시간": null, "구분": "특정인 이용가능" }, "geometry": { "type": "Point", "coordinates": [ 126.932468887532366, 35.157381732062142 ] } },
{ "type": "Feature", "properties": { "fid": 3069, "시설명": "산수2동부녀경로당", "시설유형": "특정계층이용시설", "주소": "광주광역시 동구  필문대로153번길  9-3  (산수동)", "시간": null, "구분": "특정인 이용가능" }, "geometry": { "type": "Point", "coordinates": [ 126.932468887532366, 35.157381732062142 ] } },
{ "type": "Feature", "properties": { "fid": 3061, "시설명": "덕수경로당", "시설유형": "특정계층이용시설", "주소": "광주광역시 동구 무등로 417-11", "시간": null, "구분": "특정인 이용가능" }, "geometry": { "type": "Point", "coordinates": [ 126.929443766391401, 35.158632586549608 ] } },
{ "type": "Feature", "properties": { "fid": 3054, "시설명": "덕수경로당", "시설유형": "특정계층이용시설", "주소": "광주광역시 동구 무등로 417-11", "시간": null, "구분": "특정인 이용가능" }, "geometry": { "type": "Point", "coordinates": [ 126.929443766391401, 35.158632586549608 ] } },
{ "type": "Feature", "properties": { "fid": 3078, "시설명": "율곡경로당", "시설유형": "특정계층이용시설", "주소": "광주광역시 동구 밤실로 147", "시간": null, "구분": "특정인 이용가능" }, "geometry": { "type": "Point", "coordinates": [ 126.934029012349328, 35.15988309916186 ] } },
{ "type": "Feature", "properties": { "fid": 3067, "시설명": "율곡경로당", "시설유형": "특정계층이용시설", "주소": "광주광역시 동구 밤실로 147", "시간": null, "구분": "특정인 이용가능" }, "geometry": { "type": "Point", "coordinates": [ 126.934029012349328, 35.15988309916186 ] } },
{ "type": "Feature", "properties": { "fid": 3080, "시설명": "밤실경로당", "시설유형": "특정계층이용시설", "주소": "광주광역시 동구 밤실로 150", "시간": null, "구분": "특정인 이용가능" }, "geometry": { "type": "Point", "coordinates": [ 126.937747746688245, 35.160817221102377 ] } },
{ "type": "Feature", "properties": { "fid": 3074, "시설명": "밤실경로당", "시설유형": "특정계층이용시설", "주소": "광주광역시 동구 밤실로 150", "시간": null, "구분": "특정인 이용가능" }, "geometry": { "type": "Point", "coordinates": [ 126.937747746688245, 35.160817221102377 ] } },
{ "type": "Feature", "properties": { "fid": 3091, "시설명": "광주은행두암타운점", "시설유형": "생활밀착민간시설", "주소": "광주광역시 동구 갈마로 46 (산수동)", "시간": null, "구분": "누구나 이용가능" }, "geometry": { "type": "Point", "coordinates": [ 126.935492778169191, 35.161451337918955 ] } },
{ "type": "Feature", "properties": { "fid": 3092, "시설명": "광주은행두암타운점", "시설유형": "생활밀착민간시설", "주소": "광주광역시 동구 갈마로 46 (산수동)", "시간": null, "구분": "누구나 이용가능" }, "geometry": { "type": "Point", "coordinates": [ 126.935492778169191, 35.161451337918955 ] } },
{ "type": "Feature", "properties": { "fid": 4763, "시설명": "익수경로당", "시설유형": "특정계층이용시설", "주소": "광주광역시 북구 군왕로8번길 25 (풍향동)", "시간": null, "구분": "특정인 이용가능" }, "geometry": { "type": "Point", "coordinates": [ 126.931168418334778, 35.16127271312682 ] } },
{ "type": "Feature", "properties": { "fid": 4764, "시설명": "금성경로당", "시설유형": "특정계층이용시설", "주소": "광주광역시 북구 군왕로18번길 21", "시간": null, "구분": "특정인 이용가능" }, "geometry": { "type": "Point", "coordinates": [ 126.93175140179838, 35.162500022664844 ] } },
{ "type": "Feature", "properties": { "fid": 4765, "시설명": "교대금호어울림경로당", "시설유형": "특정계층이용시설", "주소": "광주광역시 북구 군왕로 17 (풍향동, 교대금호어울림)", "시간": null, "구분": "특정인 이용가능" }, "geometry": { "type": "Point", "coordinates": [ 126.929757417605501, 35.164368796885356 ] } },
{ "type": "Feature", "properties": { "fid": 4768, "시설명": "익수경로당", "시설유형": "특정계층이용시설", "주소": "광주광역시 북구 군왕로8번길 25 (풍향동)", "시간": null, "구분": "특정인 이용가능" }, "geometry": { "type": "Point", "coordinates": [ 126.931168418334778, 35.16127271312682 ] } },
{ "type": "Feature", "properties": { "fid": 4769, "시설명": "교대금호어울림경로당", "시설유형": "특정계층이용시설", "주소": "광주광역시 북구 군왕로 17 (풍향동, 교대금호어울림)", "시간": null, "구분": "특정인 이용가능" }, "geometry": { "type": "Point", "coordinates": [ 126.929757417605501, 35.164368796885356 ] } },
{ "type": "Feature", "properties": { "fid": 4770, "시설명": "금성경로당", "시설유형": "특정계층이용시설", "주소": "광주광역시 북구 군왕로18번길 21", "시간": null, "구분": "특정인 이용가능" }, "geometry": { "type": "Point", "coordinates": [ 126.93175140179838, 35.162500022664844 ] } },
{ "type": "Feature", "properties": { "fid": 4899, "시설명": "송학경로당", "시설유형": "특정계층이용시설", "주소": "광주광역시 북구 삼정로 7 (두암동, 율곡타운아파트,두암주공2단지아파트)", "시간": null, "구분": "특정인 이용가능" }, "geometry": { "type": "Point", "coordinates": [ 126.935786606857135, 35.163927033110191 ] } },
{ "type": "Feature", "properties": { "fid": 4900, "시설명": "모아미래도경로당", "시설유형": "특정계층이용시설", "주소": "광주광역시 북구 삼정로 20", "시간": null, "구분": "특정인 이용가능" }, "geometry": { "type": "Point", "coordinates": [ 126.93792569227152, 35.164064349175668 ] } },
{ "type": "Feature", "properties": { "fid": 4901, "시설명": "주공1경로당", "시설유형": "특정계층이용시설", "주소": "광주광역시 북구 삼정로 7 (두암동, 율곡타운아파트,두암주공2단지아파트)", "시간": null, "구분": "특정인 이용가능" }, "geometry": { "type": "Point", "coordinates": [ 126.935786606857135, 35.163927033110191 ] } },
{ "type": "Feature", "properties": { "fid": 4903, "시설명": "군왕로경로당", "시설유형": "특정계층이용시설", "주소": "광주광역시 북구 군왕로46번길 28 (두암동)", "시간": null, "구분": "특정인 이용가능" }, "geometry": { "type": "Point", "coordinates": [ 126.932725376297185, 35.164276864228547 ] } },
{ "type": "Feature", "properties": { "fid": 4905, "시설명": "장수경로당", "시설유형": "특정계층이용시설", "주소": "광주광역시 북구 삼정로 10", "시간": null, "구분": "특정인 이용가능" },