{
"type": "FeatureCollection",
"name": "cool",
"crs": { "type": "name", "properties": { "name": "urn:ogc:def:crs:OGC:1.3:CRS84" } },
"features": [
{ "type": "Feature", "properties": { "시설명": "충수경로당", "주소": "광주광역시 동구 충장로5가 충장로  14-20  (충장로5가)", "시설유형": null, "시간": null, "구분": null }, "geometry": { "type": "Point", "coordinates": [ 126.909963548998263, 35.151648435429109 ] } },
{ "type": "Feature", "properties": { "시설명": "수영경로당", "주소": "광주광역시 동구 중앙로148번길 11-23", "시설유형": null, "시간": null, "구분": null }, "geometry": { "type": "Point", "coordinates": [ 126.913173889007552, 35.147526246620629 ] } },
{ "type": "Feature", "properties": { "시설명": "삼성경로당", "주소": "광주광역시 동구 제봉로138번길 8-11", "시설유형": null, "시간": null, "구분": null }, "geometry": { "type": "Point", "coordinates": [ 126.922245773661601, 35.150038800828533 ] } },
{ "type": "Feature", "properties": { "시설명": "보훈경로당", "주소": "광주광역시 동구  구성로204번길  6-1  (대인동)", "시설유형": null, "시간": null, "구분": null }, "geometry": { "type": "Point", "coordinates": [ 126.915041091961285, 35.153092736595127 ] } },
{ "type": "Feature", "properties": { "시설명": "충의경로당", "주소": "광주광역시 동구  예술길  19-8  (궁동)", "시설유형": null, "시간": null, "구분": null }, "geometry": { "type": "Point", "coordinates": [ 126.918781626440918, 35.150300429123931 ] } },
{ "type": "Feature", "properties": { "시설명": "파월경로당", "주소": "광주광역시 동구  동계천로  74   (장동)", "시설유형": null, "시간": null, "구분": null }, "geometry": { "type": "Point", "coordinates": [ 126.919315591329877, 35.152906178557217 ] } },
{ "type": "Feature", "properties": { "시설명": "통일 경로당", "주소": "광주광역시 동구 제봉로194번길 4", "시설유형": null, "시간": null, "구분": null }, "geometry": { "type": "Point", "coordinates": [ 126.916392944709543, 35.153531490721178 ] } },
{ "type": "Feature", "properties": { "시설명": "광주은행 금남로점", "주소": "광주광역시 동구 금남로 201", "시설유형": null, "시간": null, "구분": null }, "geometry": { "type": "Point", "coordinates": [ 126.914837071239418, 35.150778005054732 ] } },
{ "type": "Feature", "properties": { "시설명": "광주은행 영업부", "주소": "광주광역시 동구 제봉로 225", "시설유형": null, "시간": null, "구분": null }, "geometry": { "type": "Point", "coordinates": [ 126.912872505366096, 35.154824450463877 ] } },
{ "type": "Feature", "properties": { "시설명": "광주은행 중부점", "주소": "광주광역시 동구 천변우로 339", "시설유형": null, "시간": null, "구분": null }, "geometry": { "type": "Point", "coordinates": [ 126.909594149786969, 35.150186528808142 ] } },
{ "type": "Feature", "properties": { "시설명": "충장동행정복지센터", "주소": "광주광역시 동구 충장로58번길 16", "시설유형": null, "시간": null, "구분": null }, "geometry": { "type": "Point", "coordinates": [ 126.912805453714668, 35.149177741425454 ] } },
{ "type": "Feature", "properties": { "시설명": "동구노인복지회관", "주소": "광주광역시 동구  동명로20번길  10   (동명동)", "시설유형": null, "시간": null, "구분": null }, "geometry": { "type": "Point", "coordinates": [ 126.924369666455505, 35.150473150131752 ] } },
{ "type": "Feature", "properties": { "시설명": "동명경로당", "주소": "광주광역시 동구  백서로224번길  8   (동명동)", "시설유형": null, "시간": null, "구분": null }, "geometry": { "type": "Point", "coordinates": [ 126.927449684191359, 35.14783744129371 ] } },
{ "type": "Feature", "properties": { "시설명": "동명동행정복지센터", "주소": "광주광역시 동구 동명로26번길 13", "시설유형": null, "시간": null, "구분": null }, "geometry": { "type": "Point", "coordinates": [ 126.925167916993772, 35.151163040456275 ] } },
{ "type": "Feature", "properties": { "시설명": "광주은행 계림점", "주소": "광주광역시 동구 중앙로 240", "시설유형": null, "시간": null, "구분": null }, "geometry": { "type": "Point", "coordinates": [ 126.919668558482073, 35.153146201819077 ] } },
{ "type": "Feature", "properties": { "시설명": "동명부녀경로당", "주소": "광주광역시 동구 백서로224번길 6-8", "시설유형": null, "시간": null, "구분": null }, "geometry": { "type": "Point", "coordinates": [ 126.927220448256762, 35.147508687278084 ] } },
{ "type": "Feature", "properties": { "시설명": "동심경로당", "주소": "광주광역시 동구  동계천로85번길  10-20  (동명동)", "시설유형": null, "시간": null, "구분": null }, "geometry": { "type": "Point", "coordinates": [ 126.92176148207254, 35.152576472598334 ] } },
{ "type": "Feature", "properties": { "시설명": "계림경로당", "주소": "광주광역시 동구 계림동 무등로321번길  9   (계림동)", "시설유형": null, "시간": null, "구분": null }, "geometry": { "type": "Point", "coordinates": [ 126.918332322676576, 35.16282043370142 ] } },
{ "type": "Feature", "properties": { "시설명": "유림경로당", "주소": "광주광역시 동구  경양로217번길  11   (계림동)", "시설유형": null, "시간": null, "구분": null }, "geometry": { "type": "Point", "coordinates": [ 126.915573789050114, 35.15954522748256 ] } },
{ "type": "Feature", "properties": { "시설명": "경양부녀경로당", "주소": "광주광역시 동구  경양로243번길  23   (계림동)", "시설유형": null, "시간": null, "구분": null }, "geometry": { "type": "Point", "coordinates": [ 126.918752112683407, 35.158885751425352 ] } },
{ "type": "Feature", "properties": { "시설명": "행단경로당", "주소": "광주광역시 동구 독립로384번길 16", "시설유형": null, "시간": null, "구분": null }, "geometry": { "type": "Point", "coordinates": [ 126.916879741159335, 35.164314359792087 ] } },
{ "type": "Feature", "properties": { "시설명": "계림 꿈나무도서관", "주소": "광주광역시 동구 경양로247번길 26", "시설유형": null, "시간": null, "구분": null }, "geometry": { "type": "Point", "coordinates": [ 126.919636706177769, 35.158532998912449 ] } },
{ "type": "Feature", "properties": { "시설명": "수성경로당", "주소": "광주광역시 동구 중앙로 291-1", "시설유형": null, "시간": null, "구분": null }, "geometry": { "type": "Point", "coordinates": [ 126.920229842315692, 35.157788791506832 ] } },
{ "type": "Feature", "properties": { "시설명": "계림1동행정복지센터", "주소": "광주광역시 동구 경양로247번길 26", "시설유형": null, "시간": null, "구분": null }, "geometry": { "type": "Point", "coordinates": [ 126.919636706177769, 35.158532998912449 ] } },
{ "type": "Feature", "properties": { "시설명": "계림2동행정복지센터", "주소": "광주광역시 동구 계림로30번길 15", "시설유형": null, "시간": null, "구분": null }, "geometry": { "type": "Point", "coordinates": [ 126.924419738698688, 35.157973492325041 ] } },
{ "type": "Feature", "properties": { "시설명": "구구팔팔대명경로당", "주소": "광주광역시 동구 계림로 51-26", "시설유형": null, "시간": null, "구분": null }, "geometry": { "type": "Point", "coordinates": [ 126.922994915825257, 35.156376013670318 ] } },
{ "type": "Feature", "properties": { "시설명": "광주은행 경양로점", "주소": "광주광역시 동구 중앙로 358", "시설유형": null, "시간": null, "구분": null }, "geometry": { "type": "Point", "coordinates": [ 126.920069961158745, 35.164054396184994 ] } },
{ "type": "Feature", "properties": { "시설명": "풍성경로당", "주소": "광주광역시 동구 필문대로 70-4", "시설유형": null, "시간": null, "구분": null }, "geometry": { "type": "Point", "coordinates": [ 126.925557249677951, 35.161993275920622 ] } },
{ "type": "Feature", "properties": { "시설명": "참판경로당", "주소": "광주광역시 동구 계림동 참판로26번길  20-2  (계림동)", "시설유형": null, "시간": null, "구분": null }, "geometry": { "type": "Point", "coordinates": [ 126.929147839979692, 35.16077610736177 ] } },
{ "type": "Feature", "properties": { "시설명": "두산위브경로당", "주소": "광주광역시 동구  무등로  374 , 상가 (계림동)", "시설유형": null, "시간": null, "구분": null }, "geometry": { "type": "Point", "coordinates": [ 126.924183450613114, 35.159660813668971 ] } },
{ "type": "Feature", "properties": { "시설명": "금호주상복함경로당", "주소": "광주광역시 동구  중앙로  358 , 상가동 (계림동)", "시설유형": null, "시간": null, "구분": null }, "geometry": { "type": "Point", "coordinates": [ 126.920069961158745, 35.164054396184994 ] } },
{ "type": "Feature", "properties": { "시설명": "금호타운경로당", "주소": "광주광역시 동구  필문대로  12-7  (계림동, 금호타운)", "시설유형": null, "시간": null, "구분": null }, "geometry": { "type": "Point", "coordinates": [ 126.921774497555759, 35.163895406902434 ] } },
{ "type": "Feature", "properties": { "시설명": "이화경로당", "주소": "광주광역시 동구  산수길39번길  29   (계림동)", "시설유형": null, "시간": null, "구분": null }, "geometry": { "type": "Point", "coordinates": [ 126.926169872261895, 35.159071843715161 ] } },
{ "type": "Feature", "properties": { "시설명": "천수경로당", "주소": "광주광역시 동구  계림로20번길  7   (계림동)", "시설유형": null, "시간": null, "구분": null }, "geometry": { "type": "Point", "coordinates": [ 126.923043100549364, 35.155881127892179 ] } },
{ "type": "Feature", "properties": { "시설명": "산수1동행정복지센터", "주소": "광주광역시 동구 무등로449번길 12", "시설유형": null, "시간": null, "구분": null }, "geometry": { "type": "Point", "coordinates": [ 126.930721035776372, 35.157304491922957 ] } },
{ "type": "Feature", "properties": { "시설명": "광주은행 산수동점", "주소": "광주광역시 동구 필문대로 190", "시설유형": null, "시간": null, "구분": null }, "geometry": { "type": "Point", "coordinates": [ 126.931224212610815, 35.153880804504453 ] } },
{ "type": "Feature", "properties": { "시설명": "덕수경로당", "주소": "광주광역시 동구 무등로 417-3", "시설유형": null, "시간": null, "구분": null }, "geometry": { "type": "Point", "coordinates": [ 126.927873399680649, 35.158893561040699 ] } },
{ "type": "Feature", "properties": { "시설명": "산수경로당", "주소": "광주광역시 동구 산수동 산수길  8   (산수동)", "시설유형": null, "시간": null, "구분": null }, "geometry": { "type": "Point", "coordinates": [ 126.928005788717272, 35.154583128915874 ] } },
{ "type": "Feature", "properties": { "시설명": "산수반월경로당", "주소": "광주광역시 동구  필문대로  162-13  (산수동)", "시설유형": null, "시간": null, "구분": null }, "geometry": { "type": "Point", "coordinates": [ 126.930897136893194, 35.156380046606536 ] } },
{ "type": "Feature", "properties": { "시설명": "동백부녀경로당", "주소": "광주광역시 동구  필문대로205번길  11-18  (산수동)", "시설유형": null, "시간": null, "구분": null }, "geometry": { "type": "Point", "coordinates": [ 126.932779595909963, 35.152838109288126 ] } },
{ "type": "Feature", "properties": { "시설명": "정암경로당", "주소": "광주광역시 동구  경양로  309-6  (산수동)", "시설유형": null, "시간": null, "구분": null }, "geometry": { "type": "Point", "coordinates": [ 126.923491706514199, 35.154581755456903 ] } },
{ "type": "Feature", "properties": { "시설명": "산수2동 주민센터", "주소": "광주광역시 동구 필문대로191번길 43-24", "시설유형": null, "시간": null, "구분": null }, "geometry": { "type": "Point", "coordinates": [ 126.936140149196461, 35.15456238009368 ] } },
{ "type": "Feature", "properties": { "시설명": "광신프로그레스경로당", "주소": "광주광역시 동구 밤실로 100", "시설유형": null, "시간": null, "구분": null }, "geometry": { "type": "Point", "coordinates": [ 126.936658829389287, 35.156398672514825 ] } },
{ "type": "Feature", "properties": { "시설명": "광주은행 두암타운점", "주소": "광주광역시 동구 갈마로 46", "시설유형": null, "시간": null, "구분": null }, "geometry": { "type": "Point", "coordinates": [ 126.935489483809249, 35.161493981663533 ] } },
{ "type": "Feature", "properties": { "시설명": "율곡경로당", "주소": "광주광역시 동구 밤실로 147", "시설유형": null, "시간": null, "구분": null }, "geometry": { "type": "Point", "coordinates": [ 126.933220875741071, 35.160269329215666 ] } },
{ "type": "Feature", "properties": { "시설명": "동산로얄경로당", "주소": "광주광역시 동구 밤실로82번길 23", "시설유형": null, "시간": null, "구분": null }, "geometry": { "type": "Point", "coordinates": [ 126.938040105069703, 35.154000633518557 ] } },
{ "type": "Feature", "properties": { "시설명": "밤실경로당", "주소": "광주광역시 동구 밤실로 150", "시설유형": null, "시간": null, "구분": null }, "geometry": { "type": "Point", "coordinates": [ 126.938523561370914, 35.160696575522167 ] } },
{ "type": "Feature", "properties": { "시설명": "광명경로당", "주소": "광주광역시 동구 무등로 532", "시설유형": null, "시간": null, "구분": null }, "geometry": { "type": "Point", "coordinates": [ 126.938640469334075, 35.15632968950861 ] } },
{ "type": "Feature", "properties": { "시설명": "장원부녀경로당", "주소": "광주광역시 동구 산수동 밤실로92번길  3   (산수동)", "시설유형": null, "시간": null, "구분": null }, "geometry": { "type": "Point", "coordinates": [ 126.936599614245566, 35.155714202716844 ] } },
{ "type": "Feature", "properties": { "시설명": "산수2동부녀경로당", "주소": "광주광역시 동구  필문대로153번길  9-3  (산수동)", "시설유형": null, "시간": null, "구분": null }, "geometry": { "type": "Point", "coordinates": [ 126.932463772372088, 35.157399684488915 ] } },
{ "type": "Feature", "properties": { "시설명": "산수2동경로당", "주소": "광주광역시 동구  필문대로153번길  9-3  (산수동)", "시설유형": null, "시간": null, "구분": null }, "geometry": { "type": "Point", "coordinates": [ 126.932463772372088, 35.157399684488915 ] } },
{ "type": "Feature", "properties": { "시설명": "무등파크경로당", "주소": "광주광역시 동구  무등로  548   (산수동, 무등파크맨션)", "시설유형": null, "시간": null, "구분": null }, "geometry": { "type": "Point", "coordinates": [ 126.939462649186396, 35.156492732587907 ] } },
{ "type": "Feature", "properties": { "시설명": "명성부녀경로당", "주소": "광주광역시 동구  밤실로  56-3  (산수동, 명성아파트)", "시설유형": null, "시간": null, "구분": null }, "geometry": { "type": "Point", "coordinates": [ 126.936904028019015, 35.153074980616786 ] } },
{ "type": "Feature", "properties": { "시설명": "장원경로당", "주소": "광주광역시 동구  필문대로191번길  31-2  (산수동)", "시설유형": null, "시간": null, "구분": null }, "geometry": { "type": "Point", "coordinates": [ 126.935095857765006, 35.15353565384379 ] } },
{ "type": "Feature", "properties": { "시설명": "지산1동행정복지센터", "주소": "광주광역시 동구 지산로 57", "시설유형": null, "시간": null, "구분": null }, "geometry": { "type": "Point", "coordinates": [ 126.932724618553991, 35.149020250394322 ] } },
{ "type": "Feature", "properties": { "시설명": "도내기 경로당", "주소": "광주광역시 동구 필문대로287번길 24-11", "시설유형": null, "시간": null, "구분": null }, "geometry": { "type": "Point", "coordinates": [ 126.929542685391993, 35.144583005035123 ] } },
{ "type": "Feature", "properties": { "시설명": "지산1동부녀경로당", "주소": "광주광역시 동구 동명로98번길 7-8", "시설유형": null, "시간": null, "구분": null }, "geometry": { "type": "Point", "coordinates": [ 126.931117708945678, 35.149986562738 ] } },
{ "type": "Feature", "properties": { "시설명": "지산1동경로당", "주소": "광주광역시 동구  지산로85번길  11-14  (지산동)", "시설유형": null, "시간": null, "구분": null }, "geometry": { "type": "Point", "coordinates": [ 126.93241394218866, 35.151278532626186 ] } },
{ "type": "Feature", "properties": { "시설명": "동계경로당", "주소": "광주광역시 동구 밤실로4번길 10", "시설유형": null, "시간": null, "구분": null }, "geometry": { "type": "Point", "coordinates": [ 126.937760378120231, 35.148179984407292 ] } },
{ "type": "Feature", "properties": { "시설명": "지산2동행정복지센터", "주소": "광주광역시 동구 지호로 51", "시설유형": null, "시간": null, "구분": null }, "geometry": { "type": "Point", "coordinates": [ 126.934500023857623, 35.147966675421365 ] } },
{ "type": "Feature", "properties": { "시설명": "광주은행 법원점", "주소": "광주광역시 동구 준법로 7-12", "시설유형": null, "시간": null, "구분": null }, "geometry": { "type": "Point", "coordinates": [ 126.934842314358008, 35.149687026224385 ] } },
{ "type": "Feature", "properties": { "시설명": "이화맨션경로당", "주소": "광주광역시 동구 밤실로 38", "시설유형": null, "시간": null, "구분": null }, "geometry": { "type": "Point", "coordinates": [ 126.937725643107569, 35.150733900323068 ] } },
{ "type": "Feature", "properties": { "시설명": "지산2동 작은도서관", "주소": "광주광역시 동구 밤실로4번길 16", "시설유형": null, "시간": null, "구분": null }, "geometry": { "type": "Point", "coordinates": [ 126.938429077832637, 35.148480860933333 ] } },
{ "type": "Feature", "properties": { "시설명": "동산경로당", "주소": "광주광역시 동구 밤실로 40-1", "시설유형": null, "시간": null, "구분": null }, "geometry": { "type": "Point", "coordinates": [ 126.937127752704257, 35.151320824372576 ] } },
{ "type": "Feature", "properties": { "시설명": "제일부녀경로당", "주소": "광주광역시 동구 밤실로 52", "시설유형": null, "시간": null, "구분": null }, "geometry": { "type": "Point", "coordinates": [ 126.936945438226999, 35.152002656251412 ] } },
{ "type": "Feature", "properties": { "시설명": "지산경로당", "주소": "광주광역시 동구 지호로70번길 23", "시설유형": null, "시간": null, "구분": null }, "geometry": { "type": "Point", "coordinates": [ 126.93865758316015, 35.147309755091193 ] } },
{ "type": "Feature", "properties": { "시설명": "푸른경로당", "주소": "광주광역시 동구 지호로 68", "시설유형": null, "시간": null, "구분": null }, "geometry": { "type": "Point", "coordinates": [ 126.936399263412369, 35.147105091849092 ] } },
{ "type": "Feature", "properties": { "시설명": "동계부녀경로당", "주소": "광주광역시 동구 지산동 밤실로4번길  16   (지산동)", "시설유형": null, "시간": null, "구분": null }, "geometry": { "type": "Point", "coordinates": [ 126.938429077832637, 35.148480860933333 ] } },
{ "type": "Feature", "properties": { "시설명": "서남동행정복지센터", "주소": "광주광역시 동구 서남로 14", "시설유형": null, "시간": null, "구분": null }, "geometry": { "type": "Point", "coordinates": [ 126.923177506041, 35.144956905104912 ] } },
{ "type": "Feature", "properties": { "시설명": "광주은행 문화전당점", "주소": "광주광역시 동구 서석로 42", "시설유형": null, "시간": null, "구분": null }, "geometry": { "type": "Point", "coordinates": [ 126.918202405159093, 35.14634001261647 ] } },
{ "type": "Feature", "properties": { "시설명": "광주은행 동구청(출)", "주소": "광주광역시 동구 서남로 1", "시설유형": null, "시간": null, "구분": null }, "geometry": { "type": "Point", "coordinates": [ 126.923216900872177, 35.14563931684993 ] } },
{ "type": "Feature", "properties": { "시설명": "광주은행 조대병원(출)", "주소": "광주광역시 동구 필문대로 365", "시설유형": null, "시간": null, "구분": null }, "geometry": { "type": "Point", "coordinates": [ 126.926675576434747, 35.138453438908336 ] } },
{ "type": "Feature", "properties": { "시설명": "광주은행 조대점", "주소": "광주광역시 동구 필문대로 309", "시설유형": null, "시간": null, "구분": null }, "geometry": { "type": "Point", "coordinates": [ 126.925621390800814, 35.144460415991894 ] } },
{ "type": "Feature", "properties": { "시설명": "동구 장애인복지관", "주소": "광주광역시 동구 백서로198번길 7", "시설유형": null, "시간": null, "구분": null }, "geometry": { "type": "Point", "coordinates": [ 126.925974247235757, 35.14552320058705 ] } },
{ "type": "Feature", "properties": { "시설명": "무등부녀경로당", "주소": "광주광역시 동구 백서로 191-2", "시설유형": null, "시간": null, "구분": null }, "geometry": { "type": "Point", "coordinates": [ 126.924781771366682, 35.145324425445779 ] } },
{ "type": "Feature", "properties": { "시설명": "문화경로당", "주소": "광주광역시 동구 백서로125번길 32-7", "시설유형": null, "시간": null, "구분": null }, "geometry": { "type": "Point", "coordinates": [ 126.918052791439578, 35.144834586476627 ] } },
{ "type": "Feature", "properties": { "시설명": "무공수훈자경로당", "주소": "광주광역시 동구  백서로  169   (서석동)", "시설유형": null, "시간": null, "구분": null }, "geometry": { "type": "Point", "coordinates": [ 126.9233560769717, 35.143749588149589 ] } },
{ "type": "Feature", "properties": { "시설명": "서석경로당", "주소": "광주광역시 동구  백서로  191-2  (서석동)", "시설유형": null, "시간": null, "구분": null }, "geometry": { "type": "Point", "coordinates": [ 126.924781771366682, 35.145324425445779 ] } },
{ "type": "Feature", "properties": { "시설명": "금남경로당", "주소": "광주광역시 동구  백서로125번길  32-7  (금동)", "시설유형": null, "시간": null, "구분": null }, "geometry": { "type": "Point", "coordinates": [ 126.918052791439578, 35.144834586476627 ] } },
{ "type": "Feature", "properties": { "시설명": "학동행정복지센터", "주소": "광주광역시 동구 천변우로 559-7", "시설유형": null, "시간": null, "구분": null }, "geometry": { "type": "Point", "coordinates": [ 126.925214996623978, 35.133111668623926 ] } },
{ "type": "Feature", "properties": { "시설명": "광주은행 전대병원점", "주소": "광주광역시 동구 제봉로 42", "시설유형": null, "시간": null, "구분": null }, "geometry": { "type": "Point", "coordinates": [ 126.92157416622841, 35.141850992186271 ] } },
{ "type": "Feature", "properties": { "시설명": "무등산IPARK경로당", "주소": "광주광역시 동구 남문로753번길 20", "시설유형": null, "시간": null, "구분": null }, "geometry": { "type": "Point", "coordinates": [ 126.924385258724953, 35.13692779769422 ] } },
{ "type": "Feature", "properties": { "시설명": "625참전동지 경로당", "주소": "광주광역시 동구 남문로 784-1", "시설유형": null, "시간": null, "구분": null }, "geometry": { "type": "Point", "coordinates": [ 126.923581343593924, 35.139413217576568 ] } },
{ "type": "Feature", "properties": { "시설명": "학1마을경로당", "주소": "광주광역시 동구 남문로 734", "시설유형": null, "시간": null, "구분": null }, "geometry": { "type": "Point", "coordinates": [ 126.926521678822766, 35.136343153503908 ] } },
{ "type": "Feature", "properties": { "시설명": "학일경로당", "주소": "광주광역시 동구 양림로 105-26", "시설유형": null, "시간": null, "구분": null }, "geometry": { "type": "Point", "coordinates": [ 126.919998462568842, 35.13992849861441 ] } },
{ "type": "Feature", "properties": { "시설명": "백화아파트경로당", "주소": "광주광역시 동구 학동 천변우로  603   (학동, 백화아파트)", "시설유형": null, "시간": null, "구분": null }, "geometry": { "type": "Point", "coordinates": [ 126.926620580090642, 35.130609387263661 ] } },
{ "type": "Feature", "properties": { "시설명": "학2마을경로당", "주소": "광주광역시 동구  남문로693번길  10   (학동)", "시설유형": null, "시간": null, "구분": null }, "geometry": { "type": "Point", "coordinates": [ 126.927348112881873, 35.132293768243471 ] } },
{ "type": "Feature", "properties": { "시설명": "학수경로당", "주소": "광주광역시 동구  남문로  784-3  (학동)", "시설유형": null, "시간": null, "구분": null }, "geometry": { "type": "Point", "coordinates": [ 126.923824938876209, 35.139394702403997 ] } },
{ "type": "Feature", "properties": { "시설명": "학운동 행정복지센터", "주소": "광주광역시 동구 의재로 53", "시설유형": null, "시간": null, "구분": null }, "geometry": { "type": "Point", "coordinates": [ 126.93352761902716, 35.132473365808522 ] } },
{ "type": "Feature", "properties": { "시설명": "광주은행 학운동점", "주소": "광주광역시 동구 남문로 678", "시설유형": null, "시간": null, "구분": null }, "geometry": { "type": "Point", "coordinates": [ 126.929375413233458, 35.131287744822792 ] } },
{ "type": "Feature", "properties": { "시설명": "광주은행 학동(출)", "주소": "광주광역시 동구 남문로 698", "시설유형": null, "시간": null, "구분": null }, "geometry": { "type": "Point", "coordinates": [ 126.928635429940172, 35.132951022978951 ] } },
{ "type": "Feature", "properties": { "시설명": "남해 오네뜨경로당", "주소": "광주광역시 동구 증심천로 117", "시설유형": null, "시간": null, "구분": null }, "geometry": { "type": "Point", "coordinates": [ 126.938367369314662, 35.134899199555996 ] } },
{ "type": "Feature", "properties": { "시설명": "금호베스트빌 경로당", "주소": "광주광역시 동구 증심천로 88", "시설유형": null, "시간": null, "구분": null }, "geometry": { "type": "Point", "coordinates": [ 126.937725994615221, 35.133512578818845 ] } },
{ "type": "Feature", "properties": { "시설명": "아남경로당", "주소": "광주광역시 동구 의재로 23-8", "시설유형": null, "시간": null, "구분": null }, "geometry": { "type": "Point", "coordinates": [ 126.930980560519501, 35.133950328462525 ] } },
{ "type": "Feature", "properties": { "시설명": "미양부녀경로당", "주소": "광주광역시 동구 의재로43번길 35-4", "시설유형": null, "시간": null, "구분": null }, "geometry": { "type": "Point", "coordinates": [ 126.935189254101161, 35.132539427260888 ] } },
{ "type": "Feature", "properties": { "시설명": "운림2차 무등파크경로당", "주소": "광주광역시 동구 운림길 29-10", "시설유형": null, "시간": null, "구분": null }, "geometry": { "type": "Point", "coordinates": [ 126.940679065304352, 35.135324004067385 ] } },
{ "type": "Feature", "properties": { "시설명": "학운동 작은도서관", "주소": "광주광역시 동구 의재로43번길 27-3", "시설유형": null, "시간": null, "구분": null }, "geometry": { "type": "Point", "coordinates": [ 126.934745276532567, 35.133039731644388 ] } },
{ "type": "Feature", "properties": { "시설명": "무등스위트경로당", "주소": "광주광역시 동구 운림길 68", "시설유형": null, "시간": null, "구분": null }, "geometry": { "type": "Point", "coordinates": [ 126.942190937549995, 35.134226110744578 ] } },
{ "type": "Feature", "properties": { "시설명": "성촌경로당", "주소": "광주광역시 동구 성촌길 8", "시설유형": null, "시간": null, "구분": null }, "geometry": { "type": "Point", "coordinates": [ 126.953326791140498, 35.134557222309446 ] } },
{ "type": "Feature", "properties": { "시설명": "동산부녀경로당", "주소": "광주광역시 동구 의재로 145-2", "시설유형": null, "시간": null, "구분": null }, "geometry": { "type": "Point", "coordinates": [ 126.943746865938806, 35.132446567901461 ] } },
{ "type": "Feature", "properties": { "시설명": "학운경로당", "주소": "광주광역시 동구 동산길7번길 36", "시설유형": null, "시간": null, "구분": null }, "geometry": { "type": "Point", "coordinates": [ 126.949250835306032, 35.130308657994298 ] } },
{ "type": "Feature", "properties": { "시설명": "라인2차부녀경로당", "주소": "광주광역시 동구 의재로 149-7", "시설유형": null, "시간": null, "구분": null }, "geometry": { "type": "Point", "coordinates": [ 126.944547891007574, 35.133150011732582 ] } },
{ "type": "Feature", "properties": { "시설명": "라인1차부녀경로당", "주소": "광주광역시 동구 운림길 71", "시설유형": null, "시간": null, "구분": null }, "geometry": { "type": "Point", "coordinates": [ 126.943360114462124, 35.134359901879385 ] } },
{ "type": "Feature", "properties": { "시설명": "무등경로당", "주소": "광주광역시 동구 운림길 23", "시설유형": null, "시간": null, "구분": null }, "geometry": { "type": "Point", "coordinates": [ 126.940912182301489, 35.134140302406323 ] } },
{ "type": "Feature", "properties": { "시설명": "삼익세라믹경로당", "주소": "광주광역시 동구 학동 남문로  676 , 삼익세라믹경로당 (학동, 삼익세라믹아파트)", "시설유형": null, "시간": null, "구분": null }, "geometry": { "type": "Point", "coordinates": [ 126.930588370111437, 35.130534518681387 ] } },
{ "type": "Feature", "properties": { "시설명": "라인광명경로당", "주소": "광주광역시 동구  운림길  58   (운림동, 라인.광명아파트)", "시설유형": null, "시간": null, "구분": null }, "geometry": { "type": "Point", "coordinates": [ 126.94246220055345, 35.134867828960189 ] } },
{ "type": "Feature", "properties": { "시설명": "숙실경로당", "주소": "광주광역시 동구  증심천로  125   (학동)", "시설유형": null, "시간": null, "구분": null }, "geometry": { "type": "Point", "coordinates": [ 126.938947868416236, 35.135727619207579 ] } },
{ "type": "Feature", "properties": { "시설명": "연안경로당", "주소": "광주광역시 동구  의재로43번길  35-4  (학동)", "시설유형": null, "시간": null, "구분": null }, "geometry": { "type": "Point", "coordinates": [ 126.935189254101161, 35.132539427260888 ] } },
{ "type": "Feature", "properties": { "시설명": "지원1동행정복지센터", "주소": "광주광역시 동구 남문로 600", "시설유형": null, "시간": null, "구분": null }, "geometry": { "type": "Point", "coordinates": [ 126.932257301717783, 35.124559586917677 ] } },
{ "type": "Feature", "properties": { "시설명": "무등산골드클래스", "주소": "광주광역시 동구 학소로 109", "시설유형": null, "시간": null, "구분": null }, "geometry": { "type": "Point", "coordinates": [ 126.931639873672296, 35.129035418245849 ] } },
{ "type": "Feature", "properties": { "시설명": "석천경로당", "주소": "광주광역시 동구 학소로76번길 7-8", "시설유형": null, "시간": null, "구분": null }, "geometry": { "type": "Point", "coordinates": [ 126.934816363848896, 35.127119444994499 ] } },
{ "type": "Feature", "properties": { "시설명": "태봉경로당", "주소": "광주광역시 동구 태봉길13번길 11", "시설유형": null, "시간": null, "구분": null }, "geometry": { "type": "Point", "coordinates": [ 126.940309886456717, 35.130936568462168 ] } },
{ "type": "Feature", "properties": { "시설명": "백조경로당", "주소": "광주광역시 동구 남문로 618", "시설유형": null, "시간": null, "구분": null }, "geometry": { "type": "Point", "coordinates": [ 126.931647378603273, 35.126120616606485 ] } },
{ "type": "Feature", "properties": { "시설명": "대아부녀경로당", "주소": "광주광역시 동구 소태동 지원로  35 , 대아부녀경로당 (소태동, 대아아파트)", "시설유형": null, "시간": null, "구분": null }, "geometry": { "type": "Point", "coordinates": [ 126.936102448106638, 35.124929158611195 ] } },
{ "type": "Feature", "properties": { "시설명": "버들여자경로당", "주소": "광주광역시 동구  천변좌로630번길  3   (소태동)", "시설유형": null, "시간": null, "구분": null }, "geometry": { "type": "Point", "coordinates": [ 126.929397817868775, 35.128020257996106 ] } },
{ "type": "Feature", "properties": { "시설명": "장수경로당", "주소": "광주광역시 동구  학소로92번길  15-2  (소태동)", "시설유형": null, "시간": null, "구분": null }, "geometry": { "type": "Point", "coordinates": [ 126.933335193562399, 35.129428188237625 ] } },
{ "type": "Feature", "properties": { "시설명": "모아미래도경로당", "주소": "광주광역시 동구  학소로76번길  14   (소태동, 모아미래도아파트)", "시설유형": null, "시간": null, "구분": null }, "geometry": { "type": "Point", "coordinates": [ 126.93726187907302, 35.127330056005405 ] } },
{ "type": "Feature", "properties": { "시설명": "진아하이빌 경로당", "주소": "광주광역시 동구 학소로42번길 12", "시설유형": null, "시간": null, "구분": null }, "geometry": { "type": "Point", "coordinates": [ 126.935777342484002, 35.123253276966928 ] } },
{ "type": "Feature", "properties": { "시설명": "지원2동작은도서관", "주소": "광주광역시 동구 화산로 361", "시설유형": null, "시간": null, "구분": null }, "geometry": { "type": "Point", "coordinates": [ 126.932838107450863, 35.120483911692013 ] } },
{ "type": "Feature", "properties": { "시설명": "빛고을종합사회복지관", "주소": "광주광역시 동구 천변좌로 656", "시설유형": null, "시간": null, "구분": null }, "geometry": { "type": "Point", "coordinates": [ 126.929571784981832, 35.125667152635046 ] } },
{ "type": "Feature", "properties": { "시설명": "선동경로당", "주소": "광주광역시 동구 선교로 77-6", "시설유형": null, "시간": null, "구분": null }, "geometry": { "type": "Point", "coordinates": [ 126.955386419818126, 35.09154014532465 ] } },
{ "type": "Feature", "properties": { "시설명": "삼태부녀경로당", "주소": "광주광역시 동구 소태길3번길 31", "시설유형": null, "시간": null, "구분": null }, "geometry": { "type": "Point", "coordinates": [ 126.936235759217652, 35.121569000327746 ] } },
{ "type": "Feature", "properties": { "시설명": "교동경로당", "주소": "광주광역시 동구 선교로 35", "시설유형": null, "시간": null, "구분": null }, "geometry": { "type": "Point", "coordinates": [ 126.950876082252705, 35.090285093177791 ] } },
{ "type": "Feature", "properties": { "시설명": "내지경로당", "주소": "광주광역시 동구 육판서길 180-1", "시설유형": null, "시간": null, "구분": null }, "geometry": { "type": "Point", "coordinates": [ 126.929756760535909, 35.090284735910053 ] } },
{ "type": "Feature", "properties": { "시설명": "칠전경로당", "주소": "광주광역시 동구 칠전길 70", "시설유형": null, "시간": null, "구분": null }, "geometry": { "type": "Point", "coordinates": [ 126.927289730428868, 35.104944061824398 ] } },
{ "type": "Feature", "properties": { "시설명": "지원2동주민센터", "주소": "광주광역시 동구 화산로 361", "시설유형": null, "시간": null, "구분": null }, "geometry": { "type": "Point", "coordinates": [ 126.932838107450863, 35.120483911692013 ] } },
{ "type": "Feature", "properties": { "시설명": "월남호반베르디움2차 경로당", "주소": "광주광역시 동구 남문로 307", "시설유형": null, "시간": null, "구분": null }, "geometry": { "type": "Point", "coordinates": [ 126.9384288609252, 35.100314715417589 ] } },
{ "type": "Feature", "properties": { "시설명": "남계경로당", "주소": "광주광역시 동구 남계길 51", "시설유형": null, "시간": null, "구분": null }, "geometry": { "type": "Point", "coordinates": [ 126.940072140623471, 35.092963777181929 ] } },
{ "type": "Feature", "properties": { "시설명": "한국경로당", "주소": "광주광역시 동구 화산로 352", "시설유형": null, "시간": null, "구분": null }, "geometry": { "type": "Point", "coordinates": [ 126.93279195278555, 35.119318122077892 ] } },
{ "type": "Feature", "properties": { "시설명": "아이조움 경로당", "주소": "광주광역시 동구 남문로 550", "시설유형": null, "시간": null, "구분": null }, "geometry": { "type": "Point", "coordinates": [ 126.934182051441852, 35.120129536748763 ] } },
{ "type": "Feature", "properties": { "시설명": "중앙경로당", "주소": "광주광역시 동구 지원로6번길 5-5", "시설유형": null, "시간": null, "구분": null }, "geometry": { "type": "Point", "coordinates": [ 126.933517913506407, 35.123504650006289 ] } },
{ "type": "Feature", "properties": { "시설명": "용연경로당", "주소": "광주광역시 동구  용연길  25   (용연동)", "시설유형": null, "시간": null, "구분": null }, "geometry": { "type": "Point", "coordinates": [ 126.964683940348678, 35.094333082220096 ] } },
{ "type": "Feature", "properties": { "시설명": "주남경로당", "주소": "광주광역시 동구  주남길  35   (월남동)", "시설유형": null, "시간": null, "구분": null }, "geometry": { "type": "Point", "coordinates": [ 126.942578895850943, 35.103387035382752 ] } },
{ "type": "Feature", "properties": { "시설명": "화산경로당", "주소": "광주광역시 동구 용산동 화산로238번길  16   (용산동)", "시설유형": null, "시간": null, "구분": null }, "geometry": { "type": "Point", "coordinates": [ 126.921514391769861, 35.115580405061117 ] } },
{ "type": "Feature", "properties": { "시설명": "버들남자경로당", "주소": "광주광역시 동구 소태동 천변좌로630번길  3   (소태동)", "시설유형": null, "시간": null, "구분": null }, "geometry": { "type": "Point", "coordinates": [ 126.929397817868775, 35.128020257996106 ] } },
{ "type": "Feature", "properties": { "시설명": "월남호반베르디움1차경로당", "주소": "광주광역시 동구 남문로 377", "시설유형": null, "시간": null, "구분": null }, "geometry": { "type": "Point", "coordinates": [ 126.93727787003202, 35.103954946025937 ] } },
{ "type": "Feature", "properties": { "시설명": "녹동경로당", "주소": "광주광역시 동구 녹동길 85", "시설유형": null, "시간": null, "구분": null }, "geometry": { "type": "Point", "coordinates": [ 126.934251497486414, 35.105369862952735 ] } },
{ "type": "Feature", "properties": { "시설명": "동산아파트경로당", "주소": "광주광역시 동구 화산로350번길 18", "시설유형": null, "시간": null, "구분": null }, "geometry": { "type": "Point", "coordinates": [ 126.932536957558753, 35.118018612465882 ] } },
{ "type": "Feature", "properties": { "시설명": "용산경로당", "주소": "광주광역시 동구 남문로565번길 3-3", "시설유형": null, "시간": null, "구분": null }, "geometry": { "type": "Point", "coordinates": [ 126.932443478565801, 35.121602158715348 ] } },
{ "type": "Feature", "properties": { "시설명": "대명경로당", "주소": "광주광역시 동구 소태길 22-16", "시설유형": null, "시간": null, "구분": null }, "geometry": { "type": "Point", "coordinates": [ 126.936008763171586, 35.11973191753129 ] } },
{ "type": "Feature", "properties": { "시설명": "삼태 경로당", "주소": "광주광역시 동구 소태길3번길 31", "시설유형": null, "시간": null, "구분": null }, "geometry": { "type": "Point", "coordinates": [ 126.936235759217652, 35.121569000327746 ] } },
{ "type": "Feature", "properties": { "시설명": "용강경로당", "주소": "광주광역시 동구 화산로 340", "시설유형": null, "시간": null, "구분": null }, "geometry": { "type": "Point", "coordinates": [ 126.931150712361742, 35.119648599103229 ] } },
{ "type": "Feature", "properties": { "시설명": "호반맨션 경로당", "주소": "광주광역시 동구 화산로 328-6", "시설유형": null, "시간": null, "구분": null }, "geometry": { "type": "Point", "coordinates": [ 126.931067496613736, 35.11788641137364 ] } },
{ "type": "Feature", "properties": { "시설명": "광주1호선 양동시장역", "주소": "광주광역시 서구 경열로 지하152", "시설유형": null, "시간": null, "구분": null }, "geometry": { "type": "Point", "coordinates": [ 126.901446682416108, 35.154415199940097 ] } },
{ "type": "Feature", "properties": { "시설명": "양동작은도서관", "주소": "광주광역시 서구 독립로200번길 7", "시설유형": null, "시간": null, "구분": null }, "geometry": { "type": "Point", "coordinates": [ 126.906915761686193, 35.150084797585677 ] } },
{ "type": "Feature", "properties": { "시설명": "양동 주민센터", "주소": "광주광역시 서구 천변좌로222번길 3-2", "시설유형": null, "시간": null, "구분": null }, "geometry": { "type": "Point", "coordinates": [ 126.900973799563786, 35.154814230191285 ] } },
{ "type": "Feature", "properties": { "시설명": "양1동경로당(양동)", "주소": "광주광역시 서구  경열로143번길  9-18  (양동)", "시설유형": null, "시간": null, "구분": null }, "geometry": { "type": "Point", "coordinates": [ 126.899777505000941, 35.15462765686474 ] } },
{ "type": "Feature", "properties": { "시설명": "삼익맨션경로당(양동)", "주소": "광주광역시 서구  천변좌로  282   (양동, 삼익맨션)", "시설유형": null, "시간": null, "구분": null }, "geometry": { "type": "Point", "coordinates": [ 126.905551213298139, 35.151291393773178 ] } },
{ "type": "Feature", "properties": { "시설명": "우진아파트경로당(양동)", "주소": "광주광역시 서구  독립로  195   (양동, 우진아파트)", "시설유형": null, "시간": null, "구분": null }, "geometry": { "type": "Point", "coordinates": [ 126.904811396577372, 35.150666471107577 ] } },
{ "type": "Feature", "properties": { "시설명": "양호경로당(양동)", "주소": "광주광역시 서구  구성로19번길  18   (양동)", "시설유형": null, "시간": null, "구분": null }, "geometry": { "type": "Point", "coordinates": [ 126.901602449217691, 35.152763892542033 ] } },
{ "type": "Feature", "properties": { "시설명": "양2동경로당(양동)", "주소": "광주광역시 서구  천변좌로298번길  24 , 양2동경로당 (양동)", "시설유형": null, "시간": null, "구분": null }, "geometry": { "type": "Point", "coordinates": [ 126.905890381449169, 35.149212453598182 ] } },
{ "type": "Feature", "properties": { "시설명": "금호2차아파트경로당(양동)", "주소": "광주광역시 서구  천변좌로  264   (양동, 금호아파트)", "시설유형": null, "시간": null, "구분": null }, "geometry": { "type": "Point", "coordinates": [ 126.903656081445931, 35.15171193296058 ] } },
{ "type": "Feature", "properties": { "시설명": "금호1차아파트경로당(양동)", "주소": "광주광역시 서구  독립로185번길  2   (양동, 금호아파트)", "시설유형": null, "시간": null, "구분": null }, "geometry": { "type": "Point", "coordinates": [ 126.903986519415909, 35.150311364229196 ] } },
{ "type": "Feature", "properties": { "시설명": "양3동 주민센터", "주소": "광주광역시 서구 상무대로1223번길 16", "시설유형": null, "시간": null, "구분": null }, "geometry": { "type": "Point", "coordinates": [ 126.894000427014262, 35.157528983491204 ] } },
{ "type": "Feature", "properties": { "시설명": "문화발산 마을회관(양3동)", "주소": "광주광역시 서구 발산로 33-1", "시설유형": null, "시간": null, "구분": null }, "geometry": { "type": "Point", "coordinates": [ 126.894178210964313, 35.158154670581652 ] } },
{ "type": "Feature", "properties": { "시설명": "삼성경로당(양3동)", "주소": "광주광역시 서구  상무대로1224번길  18   (양동)", "시설유형": null, "시간": null, "구분": null }, "geometry": { "type": "Point", "coordinates": [ 126.89668427340149, 35.155201247284502 ] } },
{ "type": "Feature", "properties": { "시설명": "동산아파트경로당(양3동)", "주소": "광주광역시 서구  발산로25번길  6   (양동, 동산아파트)", "시설유형": null, "시간": null, "구분": null }, "geometry": { "type": "Point", "coordinates": [ 126.893349250782904, 35.157926904736307 ] } },
{ "type": "Feature", "properties": { "시설명": "양동휴먼시아경로당(양3동)", "주소": "광주광역시 서구  발산로  36   (양동, 양동 휴먼시아)", "시설유형": null, "시간": null, "구분": null }, "geometry": { "type": "Point", "coordinates": [ 126.895822374261684, 35.157456427722884 ] } },
{ "type": "Feature", "properties": { "시설명": "샘몰경로당(양3동)", "주소": "광주광역시 서구  천변좌로118번길  4   (양동)", "시설유형": null, "시간": null, "구분": null }, "geometry": { "type": "Point", "coordinates": [ 126.891801684471005, 35.160142055380568 ] } },
{ "type": "Feature", "properties": { "시설명": "보훈경로당(양3동)", "주소": "광주광역시 서구  천변좌로  110 , 한가족생활관 (양동)", "시설유형": null, "시간": null, "구분": null }, "geometry": { "type": "Point", "coordinates": [ 126.891069468906608, 35.160341976363924 ] } },
{ "type": "Feature", "properties": { "시설명": "발산경로당(양3동)", "주소": "광주광역시 서구  천변좌로  154-9  (양동)", "시설유형": null, "시간": null, "구분": null }, "geometry": { "type": "Point", "coordinates": [ 126.895720666800003, 35.158959484665665 ] } },
{ "type": "Feature", "properties": { "시설명": "농성1동 주민센터", "주소": "광주광역시 서구 상무대로1189번길 23", "시설유형": null, "시간": null, "구분": null }, "geometry": { "type": "Point", "coordinates": [ 126.889732748088321, 35.156661040606117 ] } },
{ "type": "Feature", "properties": { "시설명": "광주은행 서구청출장소(농성1동)", "주소": "광주광역시 서구 경열로 33", "시설유형": null, "시간": null, "구분": null }, "geometry": { "type": "Point", "coordinates": [ 126.890276456801871, 35.151968342994088 ] } },
{ "type": "Feature", "properties": { "시설명": "농성경로당(농성1동)", "주소": "광주광역시 서구  월산로268번길  11   (농성동)", "시설유형": null, "시간": null, "구분": null }, "geometry": { "type": "Point", "coordinates": [ 126.889687595783485, 35.159859211999489 ] } },
{ "type": "Feature", "properties": { "시설명": "연강경로당(농성1동)", "주소": "광주광역시 서구  월산로255번길  10-6  (농성동)", "시설유형": null, "시간": null, "구분": null }, "geometry": { "type": "Point", "coordinates": [ 126.888055170392434, 35.158512553090112 ] } },
{ "type": "Feature", "properties": { "시설명": "와우경로당(농성1동)", "주소": "광주광역시 서구  발산로5번길  6   (농성동)", "시설유형": null, "시간": null, "구분": null }, "geometry": { "type": "Point", "coordinates": [ 126.891875325381889, 35.156445249945556 ] } },
{ "type": "Feature", "properties": { "시설명": "중흥파크경로당(농성1동)", "주소": "광주광역시 서구  월산로  210   (농성동, 중흥파크아파트)", "시설유형": null, "시간": null, "구분": null }, "geometry": { "type": "Point", "coordinates": [ 126.892480934982927, 35.156164030213226 ] } },
{ "type": "Feature", "properties": { "시설명": "연화경로당(농성1동)", "주소": "광주광역시 서구  상무대로1194번길  12-8, 연화경로당 (농성동)", "시설유형": null, "시간": null, "구분": null }, "geometry": { "type": "Point", "coordinates": [ 126.892526435751222, 35.153857534946908 ] } },
{ "type": "Feature", "properties": { "시설명": "새마을경로당(농성1동)", "주소": "광주광역시 서구  월산로225번길  10-32  (농성동)", "시설유형": null, "시간": null, "구분": null }, "geometry": { "type": "Point", "coordinates": [ 126.889424145345814, 35.156344072954688 ] } },
{ "type": "Feature", "properties": { "시설명": "상록경로당(농성1동)", "주소": "광주광역시 서구  내방로404번길  22   (농성동)", "시설유형": null, "시간": null, "구분": null }, "geometry": { "type": "Point", "coordinates": [ 126.884630987785741, 35.156401529624929 ] } },
{ "type": "Feature", "properties": { "시설명": "농성제일파크경로당(농성1동)", "주소": "광주광역시 서구  경열로65번길  7-1  (농성동, 제일파크)", "시설유형": null, "시간": null, "구분": null }, "geometry": { "type": "Point", "coordinates": [ 126.892450932642078, 35.152019948475612 ] } },
{ "type": "Feature", "properties": { "시설명": "농성삼익경로당(농성1동)", "주소": "광주광역시 서구  내방로  430   (농성동, 삼익아파트)", "시설유형": null, "시간": null, "구분": null }, "geometry": { "type": "Point", "coordinates": [ 126.887174819167697, 35.159198331546065 ] } },
{ "type": "Feature", "properties": { "시설명": "남천경로당(농성1동)", "주소": "광주광역시 서구  월산로194번길  4-5  (농성동)", "시설유형": null, "시간": null, "구분": null }, "geometry": { "type": "Point", "coordinates": [ 126.893943990360796, 35.154461350157852 ] } },
{ "type": "Feature", "properties": { "시설명": "서구보건소(농성1동)", "주소": "광주광역시 서구 경열로 33", "시설유형": null, "시간": null, "구분": null }, "geometry": { "type": "Point", "coordinates": [ 126.890276456801871, 35.151968342994088 ] } },
{ "type": "Feature", "properties": { "시설명": "농성빛여울채경로당(농성1동)", "주소": "광주광역시 서구 월산로 164-3", "시설유형": null, "시간": null, "구분": null }, "geometry": { "type": "Point", "coordinates": [ 126.896402380207846, 35.15260438339336 ] } },
{ "type": "Feature", "properties": { "시설명": "농성2동 주민센터", "주소": "광주광역시 서구 화정로 314", "시설유형": null, "시간": null, "구분": null }, "geometry": { "type": "Point", "coordinates": [ 126.890216894807978, 35.150388513920852 ] } },
{ "type": "Feature", "properties": { "시설명": "광주은행 농성동지점", "주소": "광주광역시 서구 경열로 40", "시설유형": null, "시간": null, "구분": null }, "geometry": { "type": "Point", "coordinates": [ 126.89018563934016, 35.150795511715032 ] } },
{ "type": "Feature", "properties": { "시설명": "광주은행 화정지점(농성2동)", "주소": "광주광역시 서구 화정로 259", "시설유형": null, "시간": null, "구분": null }, "geometry": { "type": "Point", "coordinates": [ 126.885070045497216, 35.148108023358454 ] } },
{ "type": "Feature", "properties": { "시설명": "매산경로당(농성2동)", "주소": "광주광역시 서구  군분로222번길  10-4  (농성동)", "시설유형": null, "시간": null, "구분": null }, "geometry": { "type": "Point", "coordinates": [ 126.883803237202301, 35.150623836476349 ] } },
{ "type": "Feature", "properties": { "시설명": "대남경로당(농성2동)", "주소": "광주광역시 서구  화정로309번길  9-9, 농성2동 대남경로당 (농성동)", "시설유형": null, "시간": null, "구분": null }, "geometry": { "type": "Point", "coordinates": [ 126.88860343277122, 35.150669907804165 ] } },
{ "type": "Feature", "properties": { "시설명": "농성2동경로당(농성2동)", "주소": "광주광역시 서구  화정로275번길  9-1  (농성동)", "시설유형": null, "시간": null, "구분": null }, "geometry": { "type": "Point", "coordinates": [ 126.885862448048343, 35.149404238054892 ] } },
{ "type": "Feature", "properties": { "시설명": "무공수훈자회경로당(농성2동)", "주소": "광주광역시 서구 농성동 화정로293번길  1   (농성동)", "시설유형": null, "시간": null, "구분": null }, "geometry": { "type": "Point", "coordinates": [ 126.88802658323371, 35.149696111587268 ] } },
{ "type": "Feature", "properties": { "시설명": "광천동 주민센터", "주소": "광주광역시 서구 광천2길 9", "시설유형": null, "시간": null, "구분": null }, "geometry": { "type": "Point", "coordinates": [ 126.880283514300032, 35.164344131694683 ] } },
{ "type": "Feature", "properties": { "시설명": "광주은행 신세계지점(광천동)", "주소": "광주광역시 서구 무진대로 904", "시설유형": null, "시간": null, "구분": null }, "geometry": { "type": "Point", "coordinates": [ 126.879347059937942, 35.160508547986559 ] } },
{ "type": "Feature", "properties": { "시설명": "인동경로당(광천동)", "주소": "광주광역시 서구  광천효광길  25   (광천동, 인동아파트)", "시설유형": null, "시간": null, "구분": null }, "geometry": { "type": "Point", "coordinates": [ 126.882204809570538, 35.167999788495791 ] } },
{ "type": "Feature", "properties": { "시설명": "광천e편한세상아파트경로당(광천동)", "주소": "광주광역시 서구  화운로  278   (광천동, 광천 e편한세상)", "시설유형": null, "시간": null, "구분": null }, "geometry": { "type": "Point", "coordinates": [ 126.87895983446694, 35.16396732039621 ] } },
{ "type": "Feature", "properties": { "시설명": "광암경로당(광천동)", "주소": "광주광역시 서구  화운로309번길  19-8  (광천동)", "시설유형": null, "시간": null, "구분": null }, "geometry": { "type": "Point", "coordinates": [ 126.87552714337761, 35.167724192110455 ] } },
{ "type": "Feature", "properties": { "시설명": "인화경로당(광천동)", "주소": "광주광역시 서구  광천효광길  7   (광천동)", "시설유형": null, "시간": null, "구분": null }, "geometry": { "type": "Point", "coordinates": [ 126.879582494218965, 35.167840443959747 ] } },
{ "type": "Feature", "properties": { "시설명": "영락경로당(광천동)", "주소": "광주광역시 서구  광천1길  9   (광천동)", "시설유형": null, "시간": null, "구분": null }, "geometry": { "type": "Point", "coordinates": [ 126.882223552397775, 35.164287731978781 ] } },
{ "type": "Feature", "properties": { "시설명": "남성경로당(광천동)", "주소": "광주광역시 서구  화운로303번길  19-2  (광천동)", "시설유형": null, "시간": null, "구분": null }, "geometry": { "type": "Point", "coordinates": [ 126.875067641543069, 35.166417648992628 ] } },
{ "type": "Feature", "properties": { "시설명": "광천경로당(광천동)", "주소": "광주광역시 서구  죽봉대로120번길  8 , 광천경로당 (광천동)", "시설유형": null, "시간": null, "구분": null }, "geometry": { "type": "Point", "coordinates": [ 126.884659000211471, 35.163768135550633 ] } },
{ "type": "Feature", "properties": { "시설명": "유덕동 주민센터", "주소": "광주광역시 서구 유덕로 24", "시설유형": null, "시간": null, "구분": null }, "geometry": { "type": "Point", "coordinates": [ 126.851826080331136, 35.165110099621366 ] } },
{ "type": "Feature", "properties": { "시설명": "광주은행 상무버들지점(유덕동)", "주소": "광주광역시 서구 상무버들로40번길 1", "시설유형": null, "시간": null, "구분": null }, "geometry": { "type": "Point", "coordinates": [ 126.858771341224838, 35.16476192404884 ] } },
{ "type": "Feature", "properties": { "시설명": "광천사랑숲경로당(유덕동)", "주소": "광주광역시 서구  천변좌하로  472   (쌍촌동)", "시설유형": null, "시간": null, "구분": null }, "geometry": { "type": "Point", "coordinates": [ 126.862814858610463, 35.16746505339858 ] } },
{ "type": "Feature", "properties": { "시설명": "진성아파트경로당(유덕동)", "주소": "광주광역시 서구  칠성로  131-1  (쌍촌동, 진성아파트)", "시설유형": null, "시간": null, "구분": null }, "geometry": { "type": "Point", "coordinates": [ 126.871772052716281, 35.166520278081961 ] } },
{ "type": "Feature", "properties": { "시설명": "칠성경로당(유덕동)", "주소": "광주광역시 서구  유림로46번길  22   (쌍촌동)", "시설유형": null, "시간": null, "구분": null }, "geometry": { "type": "Point", "coordinates": [ 126.865985823527254, 35.167011416519209 ] } },
{ "type": "Feature", "properties": { "시설명": "양화경로당(유덕동)", "주소": "광주광역시 서구 유덕로12번길 20", "시설유형": null, "시간": null, "구분": null }, "geometry": { "type": "Point", "coordinates": [ 126.852412033770818, 35.166028520269045 ] } },
{ "type": "Feature", "properties": { "시설명": "송당경로당(유덕동)", "주소": "광주광역시 서구  유덕로6번길  18   (유촌동)", "시설유형": null, "시간": null, "구분": null }, "geometry": { "type": "Point", "coordinates": [ 126.854685500458146, 35.165992477107373 ] } },
{ "type": "Feature", "properties": { "시설명": "상무버들마을1단지경로당(유덕동)", "주소": "광주광역시 서구  상무버들로40번길  14   (유촌동, 상무버들마을1주공아파트)", "시설유형": null, "시간": null, "구분": null }, "geometry": { "type": "Point", "coordinates": [ 126.861363244740602, 35.165098583379105 ] } },
{ "type": "Feature", "properties": { "시설명": "버들마을호반2차경로당(유덕동", "주소": "광주광역시 서구  상무버들로  45   (유촌동, 상무버들마을호반리젠시빌)", "시설유형": null, "시간": null, "구분": null }, "geometry": { "type": "Point", "coordinates": [ 126.858498858371007, 35.163129287568388 ] } },
{ "type": "Feature", "properties": { "시설명": "버들마을경로당(2단지)(유덕동)", "주소": "광주광역시 서구  상무버들로  15   (유촌동, 상무 버들마을2 주공아파트)", "시설유형": null, "시간": null, "구분": null }, "geometry": { "type": "Point", "coordinates": [ 126.862784828109355, 35.16403327974129 ] } },
{ "type": "Feature", "properties": { "시설명": "동남아파트경로당(유덕동)", "주소": "광주광역시 서구  칠성로35번길  6-10  (쌍촌동, 동남아파트)", "시설유형": null, "시간": null, "구분": null }, "geometry": { "type": "Point", "coordinates": [ 126.861446676742815, 35.167379721483833 ] } },
{ "type": "Feature", "properties": { "시설명": "덕흥경로당(유덕동)", "주소": "광주광역시 서구  덕흥1길  39-4  (덕흥동)", "시설유형": null, "시간": null, "구분": null }, "geometry": { "type": "Point", "coordinates": [ 126.836569649482698, 35.165125817903089 ] } },
{ "type": "Feature", "properties": { "시설명": "덕흥한마음경로당(유덕동)", "주소": "광주광역시 서구 덕흥1길 63", "시설유형": null, "시간": null, "구분": null }, "geometry": { "type": "Point", "coordinates": [ 126.834938426161841, 35.166753993797911 ] } },
{ "type": "Feature", "properties": { "시설명": "극락경로당(유덕동)", "주소": "광주광역시 서구  칠성로35번길  14   (유촌동)", "시설유형": null, "시간": null, "구분": null }, "geometry": { "type": "Point", "coordinates": [ 126.860076189453522, 35.166917642554466 ] } },
{ "type": "Feature", "properties": { "시설명": "낙유정", "주소": "광주광역시 서구 유덕로 33", "시설유형": null, "시간": null, "구분": null }, "geometry": { "type": "Point", "coordinates": [ 126.850650617300218, 35.165246650872184 ] } },
{ "type": "Feature", "properties": { "시설명": "갤러리303아파트경로당(치평동)", "주소": "광주광역시 서구 상무누리로 33", "시설유형": null, "시간": null, "구분": null }, "geometry": { "type": "Point", "coordinates": [ 126.837814381387446, 35.14602495546292 ] } },
{ "type": "Feature", "properties": { "시설명": "한국아파트경로당(치평)", "주소": "광주광역시 서구  상무시민로  65   (치평동, 한국아파트)", "시설유형": null, "시간": null, "구분": null }, "geometry": { "type": "Point", "coordinates": [ 126.845890552221292, 35.155508015767452 ] } },
{ "type": "Feature", "properties": { "시설명": "해광한신경로당(치평동)", "주소": "광주광역시 서구  상무공원로  114   (치평동, 해광한신아파트)", "시설유형": null, "시간": null, "구분": null }, "geometry": { "type": "Point", "coordinates": [ 126.843692206834305, 35.153628975344276 ] } },
{ "type": "Feature", "properties": { "시설명": "중흥2단지경로당(치평동)", "주소": "광주광역시 서구  치평로  77   (치평동, 중흥아파트)", "시설유형": null, "시간": null, "구분": null }, "geometry": { "type": "Point", "coordinates": [ 126.844867520710906, 35.154912502182995 ] } },
{ "type": "Feature", "properties": { "시설명": "중흥1단지경로당(치평동)", "주소": "광주광역시 서구  상무자유로  105   (치평동, 중흥아파트)", "시설유형": null, "시간": null, "구분": null }, "geometry": { "type": "Point", "coordinates": [ 126.845537897809663, 35.152591218116925 ] } },
{ "type": "Feature", "properties": { "시설명": "행복도서관", "주소": "광주광역시 서구 상무자유로 73", "시설유형": null, "시간": null, "구분": null }, "geometry": { "type": "Point", "coordinates": [ 126.842221304033629, 35.152216575204228 ] } },
{ "type": "Feature", "properties": { "시설명": "치평동 주민센터", "주소": "광주광역시 서구 상무공원로 62", "시설유형": null, "시간": null, "구분": null }, "geometry": { "type": "Point", "coordinates": [ 126.843333075889149, 35.149951973453021 ] } },
{ "type": "Feature", "properties": { "시설명": "상무호반경로당(치평동)", "주소": "광주광역시 서구  상무공원로  128   (치평동, 호반아파트)", "시설유형": null, "시간": null, "구분": null }, "geometry": { "type": "Point", "coordinates": [ 126.843708315787282, 35.155462451240687 ] } },
{ "type": "Feature", "properties": { "시설명": "상무현대아파트경로당(치평동)", "주소": "광주광역시 서구  내방로  52   (치평동, 현대아파트)", "시설유형": null, "시간": null, "구분": null }, "geometry": { "type": "Point", "coordinates": [ 126.844922229132806, 35.157945892479454 ] } },
{ "type": "Feature", "properties": { "시설명": "상무우미경로당(치평동)", "주소": "광주광역시 서구  상무공원로  35   (치평동, 상무1차우미아파트)", "시설유형": null, "시간": null, "구분": null }, "geometry": { "type": "Point", "coordinates": [ 126.842269479620455, 35.146357919679474 ] } },
{ "type": "Feature", "properties": { "시설명": "상무대주1차경로당(치평동)", "주소": "광주광역시 서구  상무공원로  94   (치평동, 대주아파트)", "시설유형": null, "시간": null, "구분": null }, "geometry": { "type": "Point", "coordinates": [ 126.843687300304182, 35.15313308715438 ] } },
{ "type": "Feature", "properties": { "시설명": "상무금호대우@경로당(치평동)", "주소": "광주광역시 서구  치평로  107   (치평동, 금호대우아파트)", "시설유형": null, "시간": null, "구분": null }, "geometry": { "type": "Point", "coordinates": [ 126.846810450309931, 35.157783957287251 ] } },
{ "type": "Feature", "properties": { "시설명": "상무금호4차경로당(치평동)", "주소": "광주광역시 서구  상무공원로  35   (치평동, 상무1차우미아파트)", "시설유형": null, "시간": null, "구분": null }, "geometry": { "type": "Point", "coordinates": [ 126.842269479620455, 35.146357919679474 ] } },
{ "type": "Feature", "properties": { "시설명": "라인동산경로당(치평동)", "주소": "광주광역시 서구  상무평화로  64   (치평동, 상무지구 라인,동산아파트)", "시설유형": null, "시간": null, "구분": null }, "geometry": { "type": "Point", "coordinates": [ 126.845363131596756, 35.147004119573261 ] } },
{ "type": "Feature", "properties": { "시설명": "라인대주경로당(치평동)", "주소": "광주광역시 서구  치평로  15   (치평동, 라인.대주아파트)", "시설유형": null, "시간": null, "구분": null }, "geometry": { "type": "Point", "coordinates": [ 126.845097880275148, 35.148762852900774 ] } },
{ "type": "Feature", "properties": { "시설명": "금호타운경로당(치평동)", "주소": "광주광역시 서구  치평로  23   (치평동, 금호타운)", "시설유형": null, "시간": null, "구분": null }, "geometry": { "type": "Point", "coordinates": [ 126.845793995692347, 35.149490055043209 ] } },
{ "type": "Feature", "properties": { "시설명": "금호쌍용아파트경로당(치펑동)", "주소": "광주광역시 서구  치평로  35   (치평동, 금호쌍용아파트)", "시설유형": null, "시간": null, "구분": null }, "geometry": { "type": "Point", "coordinates": [ 126.844922857052083, 35.150089002528297 ] } },
{ "type": "Feature", "properties": { "시설명": "오색경로당 (치평동, 상무광명메이루즈)", "주소": "광주광역시 서구 시청로 27", "시설유형": null, "시간": null, "구분": null }, "geometry": { "type": "Point", "coordinates": [ 126.850837631956722, 35.150959336873029 ] } },
{ "type": "Feature", "properties": { "시설명": "광주은행 광주시청지점(치평동)", "주소": "광주광역시 서구 내방로 111", "시설유형": null, "시간": null, "구분": null }, "geometry": { "type": "Point", "coordinates": [ 126.851451669395317, 35.160121707233017 ] } },
{ "type": "Feature", "properties": { "시설명": "광주은행 상무중앙지점(치평동)", "주소": "광주광역시 서구 시청로 26", "시설유형": null, "시간": null, "구분": null }, "geometry": { "type": "Point", "coordinates": [ 126.852168728480521, 35.150660990327779 ] } },
{ "type": "Feature", "properties": { "시설명": "광주은행 상무지점(치평동)", "주소": "광주광역시 서구 상무시민로 75", "시설유형": null, "시간": null, "구분": null }, "geometry": { "type": "Point", "coordinates": [ 126.847097128854926, 35.155526042271106 ] } },
{ "type": "Feature", "properties": { "시설명": "상무엘리체아파트경로당(상무1동)", "주소": "광주광역시 서구 월드컵4강로197번길 12", "시설유형": null, "시간": null, "구분": null }, "geometry": { "type": "Point", "coordinates": [ 126.868013091847345, 35.154179615272923 ] } },
{ "type": "Feature", "properties": { "시설명": "파랑새원룸타운경로당(상무1동", "주소": "광주광역시 서구  상무오월로19번길  3   (쌍촌동)", "시설유형": null, "시간": null, "구분": null }, "geometry": { "type": "Point", "coordinates": [ 126.861362794091946, 35.155891007316164 ] } },
{ "type": "Feature", "properties": { "시설명": "모아제일경로당(상무1동)", "주소": "광주광역시 서구  상일로  37   (쌍촌동, 모아제일아파트)", "시설유형": null, "시간": null, "구분": null }, "geometry": { "type": "Point", "coordinates": [ 126.862434493080883, 35.159044414569848 ] } },
{ "type": "Feature", "properties": { "시설명": "계수경로당(상무1동)", "주소": "광주광역시 서구  계수로59번길  4-9  (쌍촌동)", "시설유형": null, "시간": null, "구분": null }, "geometry": { "type": "Point", "coordinates": [ 126.857783119380244, 35.160866540301107 ] } },
{ "type": "Feature", "properties": { "시설명": "중흥S클래스경로당(상무1동)", "주소": "광주광역시 서구  상무민주로  104   (쌍촌동, 중흥에스-클래스)", "시설유형": null, "시간": null, "구분": null }, "geometry": { "type": "Point", "coordinates": [ 126.861304853368836, 35.159403775756054 ] } },
{ "type": "Feature", "properties": { "시설명": "현대아파트경로당(상무1)", "주소": "광주광역시 서구  내방로240번길  8   (쌍촌동, 현대아파트)", "시설유형": null, "시간": null, "구분": null }, "geometry": { "type": "Point", "coordinates": [ 126.866565932696062, 35.15721441090902 ] } },
{ "type": "Feature", "properties": { "시설명": "운천경로당(상무1동)", "주소": "광주광역시 서구  상무민주로6번길  17   (쌍촌동)", "시설유형": null, "시간": null, "구분": null }, "geometry": { "type": "Point", "coordinates": [ 126.860293981680371, 35.151585643455391 ] } },
{ "type": "Feature", "properties": { "시설명": "쌍촌호반리젠시빌경로당(상무1", "주소": "광주광역시 서구  상일로  53   (쌍촌동, 호반리젠시빌)", "시설유형": null, "시간": null, "구분": null }, "geometry": { "type": "Point", "coordinates": [ 126.862467544717632, 35.160737956465958 ] } },
{ "type": "Feature", "properties": { "시설명": "쌍촌경로당(상무1동)", "주소": "광주광역시 서구  상무대로955번길  30-13  (쌍촌동)", "시설유형": null, "시간": null, "구분": null }, "geometry": { "type": "Point", "coordinates": [ 126.867205795993101, 35.154363929918624 ] } },
{ "type": "Feature", "properties": { "시설명": "신천힐탑경로당(상무1동)", "주소": "광주광역시 서구  상무오월로51번길  2   (쌍촌동)", "시설유형": null, "시간": null, "구분": null }, "geometry": { "type": "Point", "coordinates": [ 126.865268131372446, 35.156139990230081 ] } },
{ "type": "Feature", "properties": { "시설명": "상무우미아트빌경로당(상무1)", "주소": "광주광역시 서구  상무민주로  120   (쌍촌동, 우미 아트빌)", "시설유형": null, "시간": null, "구분": null }, "geometry": { "type": "Point", "coordinates": [ 126.861330099772189, 35.160487751433529 ] } },
{ "type": "Feature", "properties": { "시설명": "광명하이츠경로당(상무1동)", "주소": "광주광역시 서구  내방로251번길  10   (쌍촌동, 광명하이츠타운)", "시설유형": null, "시간": null, "구분": null }, "geometry": { "type": "Point", "coordinates": [ 126.867809340368908, 35.159346876290918 ] } },
{ "type": "Feature", "properties": { "시설명": "상무1동 주민센터", "주소": "광주광역시 서구 월드컵4강로197번길 20", "시설유형": null, "시간": null, "구분": null }, "geometry": { "type": "Point", "coordinates": [ 126.867419613785756, 35.153788687557139 ] } },
{ "type": "Feature", "properties": { "시설명": "광주1호선 운천역", "주소": "광주광역시 서구 상무대로 지하883", "시설유형": null, "시간": null, "구분": null }, "geometry": { "type": "Point", "coordinates": [ 126.858691444016358, 35.150520511713559 ] } },
{ "type": "Feature", "properties": { "시설명": "광주1호선 쌍촌역", "주소": "광주광역시 서구 상무대로 지하983", "시설유형": null, "시간": null, "구분": null }, "geometry": { "type": "Point", "coordinates": [ 126.869626217336204, 35.151583941326471 ] } },
{ "type": "Feature", "properties": { "시설명": "가산경로당(상무2동)", "주소": "광주광역시 서구  금부로95번길  27   (쌍촌동)", "시설유형": null, "시간": null, "구분": null }, "geometry": { "type": "Point", "coordinates": [ 126.858605838710673, 35.142151639348107 ] } },
{ "type": "Feature", "properties": { "시설명": "중흥광명아파트경로당(상무2동", "주소": "광주광역시 서구  화정로  96   (쌍촌동, 광명 중흥아파트)", "시설유형": null, "시간": null, "구분": null }, "geometry": { "type": "Point", "coordinates": [ 126.868395748485341, 35.144825132668153 ] } },
{ "type": "Feature", "properties": { "시설명": "한마음경로당(상무2동)", "주소": "광주광역시 서구  상무대로916번길  35   (쌍촌동)", "시설유형": null, "시간": null, "구분": null }, "geometry": { "type": "Point", "coordinates": [ 126.863044750917581, 35.147843235140925 ] } },
{ "type": "Feature", "properties": { "시설명": "성우행복한경로당(상무2동)", "주소": "광주광역시 서구  마륵복개로  166   (쌍촌동, 성우 행복한집)", "시설유형": null, "시간": null, "구분": null }, "geometry": { "type": "Point", "coordinates": [ 126.85472677032979, 35.145122979405002 ] } },
{ "type": "Feature", "properties": { "시설명": "익수경로당(상무2동)", "주소": "광주광역시 서구  화정로  87-1  (쌍촌동, 쌍촌시영아파트)", "시설유형": null, "시간": null, "구분": null }, "geometry": { "type": "Point", "coordinates": [ 126.867243838242373, 35.146114466079986 ] } },
{ "type": "Feature", "properties": { "시설명": "상무푸르지오경로당(상무2동)", "주소": "광주광역시 서구 금호운천길 83", "시설유형": null, "시간": null, "구분": null }, "geometry": { "type": "Point", "coordinates": [ 126.854637012390199, 35.142492186393973 ] } },
{ "type": "Feature", "properties": { "시설명": "나눔경로당(상무2동)", "주소": "광주광역시 서구  화정로  105   (쌍촌동, 시영아파트,빛고을파크)", "시설유형": null, "시간": null, "구분": null }, "geometry": { "type": "Point", "coordinates": [ 126.869343951947869, 35.146255917877554 ] } },
{ "type": "Feature", "properties": { "시설명": "성우아파트경로당(상무2동)", "주소": "광주광역시 서구  마륵복개로  166   (쌍촌동, 성우 행복한집)", "시설유형": null, "시간": null, "구분": null }, "geometry": { "type": "Point", "coordinates": [ 126.85472677032979, 35.145122979405002 ] } },
{ "type": "Feature", "properties": { "시설명": "광주은행 금호동지점(상무2동)", "주소": "광주광역시 서구 운천로 131", "시설유형": null, "시간": null, "구분": null }, "geometry": { "type": "Point", "coordinates": [ 126.856843437478261, 35.144638006776304 ] } },
{ "type": "Feature", "properties": { "시설명": "광주은행 쌍촌동지점(상무2동)", "주소": "광주광역시 서구 상무대로 928", "시설유형": null, "시간": null, "구분": null }, "geometry": { "type": "Point", "coordinates": [ 126.863437537057038, 35.150920291820775 ] } },
{ "type": "Feature", "properties": { "시설명": "장수경로당(상무2동)", "주소": "광주광역시 서구  쌍촌로65번길  44   (쌍촌동)", "시설유형": null, "시간": null, "구분": null }, "geometry": { "type": "Point", "coordinates": [ 126.85989292380259, 35.149817893740867 ] } },
{ "type": "Feature", "properties": { "시설명": "이화경로당(상무2동)", "주소": "광주광역시 서구  상무대로916번길  17   (쌍촌동)", "시설유형": null, "시간": null, "구분": null }, "geometry": { "type": "Point", "coordinates": [ 126.862661838991258, 35.149488930953545 ] } },
{ "type": "Feature", "properties": { "시설명": "쌍학경로당(상무2동)", "주소": "광주광역시 서구  화정로85번길  26 , 상학경로당 (쌍촌동)", "시설유형": null, "시간": null, "구분": null }, "geometry": { "type": "Point", "coordinates": [ 126.866634406295731, 35.147179632896318 ] } },
{ "type": "Feature", "properties": { "시설명": "쌍촌일신아파트경로당(상무2동", "주소": "광주광역시 서구  월드컵4강로  137   (쌍촌동, 일신아파트)", "시설유형": null, "시간": null, "구분": null }, "geometry": { "type": "Point", "coordinates": [ 126.868456478129303, 35.147826660394749 ] } },
{ "type": "Feature", "properties": { "시설명": "쌍촌복지경로당(상무2동)", "주소": "광주광역시 서구  쌍학로  47   (쌍촌동, 영구임대아파트)", "시설유형": null, "시간": null, "구분": null }, "geometry": { "type": "Point", "coordinates": [ 126.869727072407656, 35.147185650515553 ] } },
{ "type": "Feature", "properties": { "시설명": "신천경로당(상무2동)", "주소": "광주광역시 서구  상무대로868번길  17-13  (쌍촌동)", "시설유형": null, "시간": null, "구분": null }, "geometry": { "type": "Point", "coordinates": [ 126.858090883943703, 35.148841871729608 ] } },
{ "type": "Feature", "properties": { "시설명": "시영아파트경로당(송죽상무2)", "주소": "광주광역시 서구  화정로  87-1  (쌍촌동, 쌍촌시영아파트)", "시설유형": null, "시간": null, "구분": null }, "geometry": { "type": "Point", "coordinates": [ 126.867243838242373, 35.146114466079986 ] } },
{ "type": "Feature", "properties": { "시설명": "상무경로당(상무2동)", "주소": "광주광역시 서구  화정로39번길  21   (쌍촌동)", "시설유형": null, "시간": null, "구분": null }, "geometry": { "type": "Point", "coordinates": [ 126.861594297828447, 35.146692439250948 ] } },
{ "type": "Feature", "properties": { "시설명": "명지아파트경로당(상무2동)", "주소": "광주광역시 서구  운천로154번길  12   (쌍촌동, 쌍촌동명지아파트)", "시설유형": null, "시간": null, "구분": null }, "geometry": { "type": "Point", "coordinates": [ 126.85833883697245, 35.146087773264192 ] } },
{ "type": "Feature", "properties": { "시설명": "대주아파트경로당(상무2)", "주소": "광주광역시 서구  화정로  106-15  (쌍촌동, 백일대주아파트)", "시설유형": null, "시간": null, "구분": null }, "geometry": { "type": "Point", "coordinates": [ 126.869694153429123, 35.144479913581712 ] } },
{ "type": "Feature", "properties": { "시설명": "상무SK뷰아파트경로당(상무2동)", "주소": "광주광역시 서구 마륵복개로 140", "시설유형": null, "시간": null, "구분": null }, "geometry": { "type": "Point", "coordinates": [ 126.851883846720341, 35.147697956440808 ] } },
{ "type": "Feature", "properties": { "시설명": "주월사경로당(상무2동)", "주소": "광주광역시 서구 쌍촌로65번길 38", "시설유형": null, "시간": null, "구분": null }, "geometry": { "type": "Point", "coordinates": [ 126.860522360672562, 35.150212383203517 ] } },
{ "type": "Feature", "properties": { "시설명": "상무2동 행정복지센터", "주소": "광주광역시 서구 화정로85번길 17", "시설유형": null, "시간": null, "구분": null }, "geometry": { "type": "Point", "coordinates": [ 126.866422282714737, 35.146564263129711 ] } },
{ "type": "Feature", "properties": { "시설명": "해광샹그릴라경로당(화정1동)", "주소": "광주광역시 서구 내방로 337", "시설유형": null, "시간": null, "구분": null }, "geometry": { "type": "Point", "coordinates": [ 126.87756061483762, 35.157730128735565 ] } },
{ "type": "Feature", "properties": { "시설명": "서부소방서", "주소": "광주광역시 서구 화운로 197", "시설유형": null, "시간": null, "구분": null }, "geometry": { "type": "Point", "coordinates": [ 126.876541918776027, 35.156512724832929 ] } },
{ "type": "Feature", "properties": { "시설명": "광주1호선 화정역", "주소": "광주광역시 서구 상무대로 지하1050", "시설유형": null, "시간": null, "구분": null }, "geometry": { "type": "Point", "coordinates": [ 126.876541404198434, 35.151956880697135 ] } },
{ "type": "Feature", "properties": { "시설명": "광주1호선 농성역", "주소": "광주광역시 서구 상무대로 지하1123", "시설유형": null, "시간": null, "구분": null }, "geometry": { "type": "Point", "coordinates": [ 126.88304266341008, 35.153340315740259 ] } },
{ "type": "Feature", "properties": { "시설명": "화정1동 주민센터", "주소": "광주광역시 서구 내방로338번길 11", "시설유형": null, "시간": null, "구분": null }, "geometry": { "type": "Point", "coordinates": [ 126.877720655375029, 35.156349732220541 ] } },
{ "type": "Feature", "properties": { "시설명": "광주은행 서광주지점(화정1동)", "주소": "광주광역시 서구 상무대로 1071", "시설유형": null, "시간": null, "구분": null }, "geometry": { "type": "Point", "coordinates": [ 126.879091573776378, 35.152733001979719 ] } },
{ "type": "Feature", "properties": { "시설명": "화방경로당(화정1동)", "주소": "광주광역시 서구  내방마을2길  12-40  (화정동)", "시설유형": null, "시간": null, "구분": null }, "geometry": { "type": "Point", "coordinates": [ 126.875872250693973, 35.155452001885848 ] } },
{ "type": "Feature", "properties": { "시설명": "화정1동경로당(화정1동)", "주소": "광주광역시 서구  화운로156번길  23-5  (화정동)", "시설유형": null, "시간": null, "구분": null }, "geometry": { "type": "Point", "coordinates": [ 126.879186358133651, 35.153466435589493 ] } },
{ "type": "Feature", "properties": { "시설명": "서구노인종합복지관(화정1동)", "주소": "광주광역시 서구  군분2로  55 , 서구노인복지회관 (화정동)", "시설유형": null, "시간": null, "구분": null }, "geometry": { "type": "Point", "coordinates": [ 126.880197359729877, 35.158117363482319 ] } },
{ "type": "Feature", "properties": { "시설명": "화내경로당(화정1동)", "주소": "광주광역시 서구  월드컵4강로198번길  18-3  (내방동)", "시설유형": null, "시간": null, "구분": null }, "geometry": { "type": "Point", "coordinates": [ 126.871521331709189, 35.153606996528424 ] } },
{ "type": "Feature", "properties": { "시설명": "솔뫼타운아파트경로당(화정1동", "주소": "광주광역시 서구  내방로278번길  7   (내방동, 솔뫼타운)", "시설유형": null, "시간": null, "구분": null }, "geometry": { "type": "Point", "coordinates": [ 126.87158998862634, 35.15695721093892 ] } },
{ "type": "Feature", "properties": { "시설명": "현대아파트경로당(화정1)", "주소": "광주광역시 서구  화운로175번길  15   (화정동, 현대아파트)", "시설유형": null, "시간": null, "구분": null }, "geometry": { "type": "Point", "coordinates": [ 126.874218109341754, 35.15440019339556 ] } },
{ "type": "Feature", "properties": { "시설명": "해태맨션경로당(화정1동)", "주소": "광주광역시 서구  내방로  304   (내방동, 해태아파트)", "시설유형": null, "시간": null, "구분": null }, "geometry": { "type": "Point", "coordinates": [ 126.873333879927245, 35.157404283171182 ] } },
{ "type": "Feature", "properties": { "시설명": "중흥파크경로당(화정1)", "주소": "광주광역시 서구  상무대로1099번길  15-1  (화정동, 중흥파크)", "시설유형": null, "시간": null, "구분": null }, "geometry": { "type": "Point", "coordinates": [ 126.881798275592786, 35.155256813209498 ] } },
{ "type": "Feature", "properties": { "시설명": "삼익아파트경로당(화정1동)", "주소": "광주광역시 서구  죽봉대로  31   (화정동, 삼익맨션아파트)", "시설유형": null, "시간": null, "구분": null }, "geometry": { "type": "Point", "coordinates": [ 126.881893961593121, 35.15642142056916 ] } },
{ "type": "Feature", "properties": { "시설명": "무등파크맨션경로당(화정1동)", "주소": "광주광역시 서구  군분2로  45   (화정동, 무등파크 맨션)", "시설유형": null, "시간": null, "구분": null }, "geometry": { "type": "Point", "coordinates": [ 126.880482207779167, 35.156614871638872 ] } },
{ "type": "Feature", "properties": { "시설명": "내방동해태아파트경로당(화정1", "주소": "광주광역시 서구  월드컵4강로226번길  14   (내방동, 해태아파트)", "시설유형": null, "시간": null, "구분": null }, "geometry": { "type": "Point", "coordinates": [ 126.870651306838766, 35.156025786597411 ] } },
{ "type": "Feature", "properties": { "시설명": "내방경로당(화정1동)", "주소": "광주광역시 서구  상무대로1005번길  11-14  (내방동)", "시설유형": null, "시간": null, "구분": null }, "geometry": { "type": "Point", "coordinates": [ 126.871279193430098, 35.152941261967037 ] } },
{ "type": "Feature", "properties": { "시설명": "내방마을주공경로당(화정1동)", "주소": "광주광역시 서구  화운로193번길  25   (내방동, 내방마을 주공아파트)", "시설유형": null, "시간": null, "구분": null }, "geometry": { "type": "Point", "coordinates": [ 126.872293197406321, 35.155438174944415 ] } },
{ "type": "Feature", "properties": { "시설명": "월서경로당(화정1동)", "주소": "광주광역시 서구 상무대로 1059", "시설유형": null, "시간": null, "구분": null }, "geometry": { "type": "Point", "coordinates": [ 126.877753828815742, 35.152380158064318 ] } },
{ "type": "Feature", "properties": { "시설명": "유니버시아드힐스테이트1단지경로당(화정2동)", "주소": "광주광역시 서구 화운로 94", "시설유형": null, "시간": null, "구분": null }, "geometry": { "type": "Point", "coordinates": [ 126.88163581352714, 35.147391184681389 ] } },
{ "type": "Feature", "properties": { "시설명": "화정고운경로당(화정2동)", "주소": "광주광역시 서구 화운로99번길 20", "시설유형": null, "시간": null, "구분": null }, "geometry": { "type": "Point", "coordinates": [ 126.877189620782062, 35.148968031015421 ] } },
{ "type": "Feature", "properties": { "시설명": "청록경로당(화정2동)", "주소": "광주광역시 서구  군분로235번길  16-6  (화정동)", "시설유형": null, "시간": null, "구분": null }, "geometry": { "type": "Point", "coordinates": [ 126.880062534163585, 35.15155353093585 ] } },
{ "type": "Feature", "properties": { "시설명": "남화아파트경로당(화정2동)", "주소": "광주광역시 서구  화정로243번길  11   (화정동, 남화아파트)", "시설유형": null, "시간": null, "구분": null }, "geometry": { "type": "Point", "coordinates": [ 126.883486023180637, 35.147807989780851 ] } },
{ "type": "Feature", "properties": { "시설명": "화정염주경로당(화정2동)", "주소": "광주광역시 서구 염화로160번길 15-3", "시설유형": null, "시간": null, "구분": null }, "geometry": { "type": "Point", "coordinates": [ 126.882951097985625, 35.142521673206581 ] } },
{ "type": "Feature", "properties": { "시설명": "화정경로당(화정2동)", "주소": "광주광역시 서구  군분로169번길  15-26  (화정동)", "시설유형": null, "시간": null, "구분": null }, "geometry": { "type": "Point", "coordinates": [ 126.885362773752234, 35.145627813895914 ] } },
{ "type": "Feature", "properties": { "시설명": "한양아파트경로당(화정2동)", "주소": "광주광역시 서구  월드컵4강로28번길  44   (화정동, 한양아파트)", "시설유형": null, "시간": null, "구분": null }, "geometry": { "type": "Point", "coordinates": [ 126.880962591961051, 35.140420914096964 ] } },
{ "type": "Feature", "properties": { "시설명": "신동아아파트경로당(화정2동)", "주소": "광주광역시 서구  월드컵4강로28번길  60   (화정동, 신동아아파트)", "시설유형": null, "시간": null, "구분": null }, "geometry": { "type": "Point", "coordinates": [ 126.882897854586389, 35.140568414616432 ] } },
{ "type": "Feature", "properties": { "시설명": "수성경로당(화정2동)", "주소": "광주광역시 서구  화운로  121-4  (화정동)", "시설유형": null, "시간": null, "구분": null }, "geometry": { "type": "Point", "coordinates": [ 126.877995528275022, 35.150021668343932 ] } },
{ "type": "Feature", "properties": { "시설명": "대주아파트경로당(화정2동)", "주소": "광주광역시 서구  월드컵4강로28번길  50-18  (화정동, 광명아파트)", "시설유형": null, "시간": null, "구분": null }, "geometry": { "type": "Point", "coordinates": [ 126.881912463036954, 35.139718454859171 ] } },
{ "type": "Feature", "properties": { "시설명": "금호아파트경로당(화정2동)", "주소": "광주광역시 서구  화운로23번길  7-8  (화정동, 금호타운)", "시설유형": null, "시간": null, "구분": null }, "geometry": { "type": "Point", "coordinates": [ 126.883676861271866, 35.14147977086472 ] } },
{ "type": "Feature", "properties": { "시설명": "광명아파트경로당(화정2동)", "주소": "광주광역시 서구  월드컵4강로28번길  50-18  (화정동, 광명아파트)", "시설유형": null, "시간": null, "구분": null }, "geometry": { "type": "Point", "coordinates": [ 126.881912463036954, 35.139718454859171 ] } },
{ "type": "Feature", "properties": { "시설명": "유니버시아드힐스테이트3단지경로당(화정2동)", "주소": "광주광역시 서구 화운로 24", "시설유형": null, "시간": null, "구분": null }, "geometry": { "type": "Point", "coordinates": [ 126.882297277651176, 35.146057513916027 ] } },
{ "type": "Feature", "properties": { "시설명": "유니버시아드힐스테이트2단지경로당(화정2동)", "주소": "광주광역시 서구 화정로 211", "시설유형": null, "시간": null, "구분": null }, "geometry": { "type": "Point", "coordinates": [ 126.879630283182294, 35.146721532655299 ] } },
{ "type": "Feature", "properties": { "시설명": "화정2동 주민센터", "주소": "광주광역시 서구 화운로 94", "시설유형": null, "시간": null, "구분": null }, "geometry": { "type": "Point", "coordinates": [ 126.88163581352714, 35.147391184681389 ] } },
{ "type": "Feature", "properties": { "시설명": "염주맨션경로당(화정3동)", "주소": "광주광역시 서구  염화로  152   (화정동, 염주맨션)", "시설유형": null, "시간": null, "구분": null }, "geometry": { "type": "Point", "coordinates": [ 126.881499166935001, 35.143249776560253 ] } },
{ "type": "Feature", "properties": { "시설명": "다모아경로당(화정3동)", "주소": "광주광역시 서구  화정로179번길  34-6  (화정동)", "시설유형": null, "시간": null, "구분": null }, "geometry": { "type": "Point", "coordinates": [ 126.876570218862668, 35.148185432286176 ] } },
{ "type": "Feature", "properties": { "시설명": "수복경로당(화정3동)", "주소": "광주광역시 서구  화정로179번길  43   (화정동)", "시설유형": null, "시간": null, "구분": null }, "geometry": { "type": "Point", "coordinates": [ 126.876182673271103, 35.149195720999984 ] } },
{ "type": "Feature", "properties": { "시설명": "e-편한세상경로당(화정3동)", "주소": "광주광역시 서구  금화로  293   (화정동, 꽃담마을 e-편한세상)", "시설유형": null, "시간": null, "구분": null }, "geometry": { "type": "Point", "coordinates": [ 126.87942107289966, 35.138513724267895 ] } },
{ "type": "Feature", "properties": { "시설명": "정우경로당(화정3동)", "주소": "광주광역시 서구  염화로103번길  9   (화정동)", "시설유형": null, "시간": null, "구분": null }, "geometry": { "type": "Point", "coordinates": [ 126.875707350010344, 35.143575655473875 ] } },
{ "type": "Feature", "properties": { "시설명": "화당경로당(화정3동)", "주소": "광주광역시 서구  화정로179번길  24-18  (화정동)", "시설유형": null, "시간": null, "구분": null }, "geometry": { "type": "Point", "coordinates": [ 126.877083072864693, 35.147189598986301 ] } },
{ "type": "Feature", "properties": { "시설명": "현대아파트경로당(화정3동)", "주소": "광주광역시 서구  월드컵4강로  22   (화정동, 현대아파트)", "시설유형": null, "시간": null, "구분": null }, "geometry": { "type": "Point", "coordinates": [ 126.877416797542139, 35.139398030900161 ] } },
{ "type": "Feature", "properties": { "시설명": "장락경로당(화정3동)", "주소": "광주광역시 서구  상무대로1014번길  11-1  (화정동)", "시설유형": null, "시간": null, "구분": null }, "geometry": { "type": "Point", "coordinates": [ 126.872833705880524, 35.150766501543607 ] } },
{ "type": "Feature", "properties": { "시설명": "우미아파트경로당(화정3동)", "주소": "광주광역시 서구  월드컵4강로28번길  16   (화정동, 우미아파트)", "시설유형": null, "시간": null, "구분": null }, "geometry": { "type": "Point", "coordinates": [ 126.878050921214424, 35.140104025034894 ] } },
{ "type": "Feature", "properties": { "시설명": "염주공원경로당(화정3동)", "주소": "광주광역시 서구  염화로134번길  18   (화정동)", "시설유형": null, "시간": null, "구분": null }, "geometry": { "type": "Point", "coordinates": [ 126.879253301790868, 35.141603473681634 ] } },
{ "type": "Feature", "properties": { "시설명": "행복경로당(화정3동)", "주소": "광주광역시 서구  화정로161번길  13   (화정동)", "시설유형": null, "시간": null, "구분": null }, "geometry": { "type": "Point", "coordinates": [ 126.875450889644881, 35.146450716207362 ] } },
{ "type": "Feature", "properties": { "시설명": "금호3차경로당(화정3동)", "주소": "광주광역시 서구  화정로180번길  6   (화정동, 금호타운)", "시설유형": null, "시간": null, "구분": null }, "geometry": { "type": "Point", "coordinates": [ 126.875797951046167, 35.145092938923206 ] } },
{ "type": "Feature", "properties": { "시설명": "청소년문화의집미소책방(작은도서관)", "주소": "광주광역시 서구 화정로179번길 63", "시설유형": null, "시간": null, "구분": null }, "geometry": { "type": "Point", "coordinates": [ 126.875957745423889, 35.15060421144841 ] } },
{ "type": "Feature", "properties": { "시설명": "화정3동 주민센터", "주소": "광주광역시 서구 월드컵4강로68번길 21", "시설유형": null, "시간": null, "구분": null }, "geometry": { "type": "Point", "coordinates": [ 126.876907845600954, 35.143455279878886 ] } },
{ "type": "Feature", "properties": { "시설명": "광주은행 염주지점(화정4동)", "주소": "광주광역시 서구 월드컵4강로 65", "시설유형": null, "시간": null, "구분": null }, "geometry": { "type": "Point", "coordinates": [ 126.874438601473926, 35.142651213587627 ] } },
{ "type": "Feature", "properties": { "시설명": "대주피오레경로당(화정4동)", "주소": "광주광역시 서구  화정로  126   (화정동, 화정동 대주피오레)", "시설유형": null, "시간": null, "구분": null }, "geometry": { "type": "Point", "coordinates": [ 126.87073332430171, 35.144262040709982 ] } },
{ "type": "Feature", "properties": { "시설명": "중흥파크경로당(화정4)", "주소": "광주광역시 서구  염화로57번길  16   (화정동, 중흥아파트)", "시설유형": null, "시간": null, "구분": null }, "geometry": { "type": "Point", "coordinates": [ 126.871362202174922, 35.140956230698549 ] } },
{ "type": "Feature", "properties": { "시설명": "화정중앙경로당(화정4동)", "주소": "광주광역시 서구  월드컵4강로81번길  4-9  (화정동)", "시설유형": null, "시간": null, "구분": null }, "geometry": { "type": "Point", "coordinates": [ 126.873000355495307, 35.144298513242347 ] } },
{ "type": "Feature", "properties": { "시설명": "호반장수경로당(화정4동)", "주소": "광주광역시 서구 학생독립로9번길 8", "시설유형": null, "시간": null, "구분": null }, "geometry": { "type": "Point", "coordinates": [ 126.868321162206527, 35.143805383131763 ] } },
{ "type": "Feature", "properties": { "시설명": "태영경로당(화정4동)", "주소": "광주광역시 서구  염화로40번길  20-1  (화정동, 태영아파트)", "시설유형": null, "시간": null, "구분": null }, "geometry": { "type": "Point", "coordinates": [ 126.875929593949706, 35.13700007329151 ] } },
{ "type": "Feature", "properties": { "시설명": "우일경로당(우성1차,화정4)", "주소": "광주광역시 서구  월드컵4강로  11   (화정동, 우성아파트)", "시설유형": null, "시간": null, "구분": null }, "geometry": { "type": "Point", "coordinates": [ 126.876761149429981, 35.13831946904314 ] } },
{ "type": "Feature", "properties": { "시설명": "우성경로당(우성2차,화정4)", "주소": "광주광역시 서구  염화로  30   (화정동, 우성아파트)", "시설유형": null, "시간": null, "구분": null }, "geometry": { "type": "Point", "coordinates": [ 126.872865303650997, 35.137214228995553 ] } },
{ "type": "Feature", "properties": { "시설명": "우미아파트경로당(화정4동)", "주소": "광주광역시 서구  염화로31번길  23   (화정동, 우미아파트)", "시설유형": null, "시간": null, "구분": null }, "geometry": { "type": "Point", "coordinates": [ 126.870393165432631, 35.136090068793372 ] } },
{ "type": "Feature", "properties": { "시설명": "방구경로당(화정4동)", "주소": "광주광역시 서구  염화로83번길  11-15  (화정동)", "시설유형": null, "시간": null, "구분": null }, "geometry": { "type": "Point", "coordinates": [ 126.872737622125427, 35.141577570044113 ] } },
{ "type": "Feature", "properties": { "시설명": "모아타워경로당(화정4동)", "주소": "광주광역시 서구  염화로  59   (화정동, 모아타워)", "시설유형": null, "시간": null, "구분": null }, "geometry": { "type": "Point", "coordinates": [ 126.873045906385371, 35.139913203863784 ] } },
{ "type": "Feature", "properties": { "시설명": "모아타운경로당(화정4동)", "주소": "광주광역시 서구  화정로  135   (화정동, 모아아파트)", "시설유형": null, "시간": null, "구분": null }, "geometry": { "type": "Point", "coordinates": [ 126.871426236226171, 35.145491009136052 ] } },
{ "type": "Feature", "properties": { "시설명": "럭키경로당(화정4동)", "주소": "광주광역시 서구  염화로40번길  20   (화정동, 럭키아파트)", "시설유형": null, "시간": null, "구분": null }, "geometry": { "type": "Point", "coordinates": [ 126.874575576483679, 35.137061559124888 ] } },
{ "type": "Feature", "properties": { "시설명": "화정라인동산경로당(화정4동)", "주소": "광주광역시 서구  염화로45번길  17   (화정동, 라인동산아파트)", "시설유형": null, "시간": null, "구분": null }, "geometry": { "type": "Point", "coordinates": [ 126.871090549518541, 35.13735789473629 ] } },
{ "type": "Feature", "properties": { "시설명": "금호타운1차경로당(화정4동)", "주소": "광주광역시 서구  염화로57번길  19   (화정동, 금호타운)", "시설유형": null, "시간": null, "구분": null }, "geometry": { "type": "Point", "coordinates": [ 126.870312595773854, 35.13943365352651 ] } },
{ "type": "Feature", "properties": { "시설명": "금호타운2차경로당(화정4동)", "주소": "광주광역시 서구  염화로57번길  1   (화정동, 금호타운)", "시설유형": null, "시간": null, "구분": null }, "geometry": { "type": "Point", "coordinates": [ 126.872876548974318, 35.139457322710697 ] } },
{ "type": "Feature", "properties": { "시설명": "화정4동 주민센터", "주소": "광주광역시 서구 염화로83번길 3", "시설유형": null, "시간": null, "구분": null }, "geometry": { "type": "Point", "coordinates": [ 126.873764485238368, 35.141825111586385 ] } },
{ "type": "Feature", "properties": { "시설명": "화정4동작은도서관", "주소": "광주광역시 서구 염화로83번길 7-3", "시설유형": null, "시간": null, "구분": null }, "geometry": { "type": "Point", "coordinates": [ 126.873382217539245, 35.141940231274418 ] } },
{ "type": "Feature", "properties": { "시설명": "광주1호선 상무역", "주소": "광주광역시 서구 상무대로 지하777", "시설유형": null, "시간": null, "구분": null }, "geometry": { "type": "Point", "coordinates": [ 126.848767297330326, 35.146791062016263 ] } },
{ "type": "Feature", "properties": { "시설명": "봉학경로당(서창동)", "주소": "광주광역시 서구  봉학길  34   (용두동)", "시설유형": null, "시간": null, "구분": null }, "geometry": { "type": "Point", "coordinates": [ 126.820612076211816, 35.096364067607048 ] } },
{ "type": "Feature", "properties": { "시설명": "사동경로당(서창동)", "주소": "광주광역시 서구  사동길  79-1  (서창동)", "시설유형": null, "시간": null, "구분": null }, "geometry": { "type": "Point", "coordinates": [ 126.834169832023463, 35.105340421442257 ] } },
{ "type": "Feature", "properties": { "시설명": "서창마을(4통)경로당(서창동", "주소": "광주광역시 서구  서창길  5-9  (서창동)", "시설유형": null, "시간": null, "구분": null }, "geometry": { "type": "Point", "coordinates": [ 126.820524996915509, 35.108580634790201 ] } },
{ "type": "Feature", "properties": { "시설명": "서창발산경로당(서창동)", "주소": "광주광역시 서구  서창발산길  10   (서창동)", "시설유형": null, "시간": null, "구분": null }, "geometry": { "type": "Point", "coordinates": [ 126.82318405421988, 35.107196696020928 ] } },
{ "type": "Feature", "properties": { "시설명": "세동경로당(서창동)", "주소": "광주광역시 서구  세동1길  34 , 세동경로당 (세하동)", "시설유형": null, "시간": null, "구분": null }, "geometry": { "type": "Point", "coordinates": [ 126.830676248286309, 35.115632998349412 ] } },
{ "type": "Feature", "properties": { "시설명": "세하경로당(서창동)", "주소": "광주광역시 서구  동하길  33 , 마을회관 (세하동)", "시설유형": null, "시간": null, "구분": null }, "geometry": { "type": "Point", "coordinates": [ 126.83620874158072, 35.12024692175769 ] } },
{ "type": "Feature", "properties": { "시설명": "신기경로당(서창동)", "주소": "광주광역시 서구  월암신기길  186-6  (마륵동)", "시설유형": null, "시간": null, "구분": null }, "geometry": { "type": "Point", "coordinates": [ 126.849984422460949, 35.145307985803349 ] } },
{ "type": "Feature", "properties": { "시설명": "신용마현경로당(서창동)", "주소": "광주광역시 서구  신용길  5   (용두동)", "시설유형": null, "시간": null, "구분": null }, "geometry": { "type": "Point", "coordinates": [ 126.816381204545308, 35.096624893778795 ] } },
{ "type": "Feature", "properties": { "시설명": "연화아파트노인정(서창동)", "주소": "광주광역시 서구  연화길  19   (마륵동, 연화주택)", "시설유형": null, "시간": null, "구분": null }, "geometry": { "type": "Point", "coordinates": [ 126.84990173943946, 35.140666516797495 ] } },
{ "type": "Feature", "properties": { "시설명": "월산경로당(서창동)", "주소": "광주광역시 서구  벽진학두길  35 , 월산경노회관 (벽진동)", "시설유형": null, "시간": null, "구분": null }, "geometry": { "type": "Point", "coordinates": [ 126.838514745989585, 35.131650567072455 ] } },
{ "type": "Feature", "properties": { "시설명": "월암경로당(서창동)", "주소": "광주광역시 서구  월암길  6   (벽진동)", "시설유형": null, "시간": null, "구분": null }, "geometry": { "type": "Point", "coordinates": [ 126.832211442100345, 35.138648597754276 ] } },
{ "type": "Feature", "properties": { "시설명": "벽진경로당(서창동)", "주소": "광주광역시 서구 벽진월산길 71", "시설유형": null, "시간": null, "구분": null }, "geometry": { "type": "Point", "coordinates": [ 126.837161457084704, 35.133199458156824 ] } },
{ "type": "Feature", "properties": { "시설명": "문촌마을경로당(서창동)", "주소": "광주광역시 서구  문촌도호길  82   (서창동)", "시설유형": null, "시간": null, "구분": null }, "geometry": { "type": "Point", "coordinates": [ 126.81497920849047, 35.114714254574388 ] } },
{ "type": "Feature", "properties": { "시설명": "매월경로당(서창동)", "주소": "광주광역시 서구  개산길  19-3, 개산마을경로당 (매월동)", "시설유형": null, "시간": null, "구분": null }, "geometry": { "type": "Point", "coordinates": [ 126.845745288353882, 35.113771713024676 ] } },
{ "type": "Feature", "properties": { "시설명": "서창동 주민센터", "주소": "광주광역시 서구 눌재로 412", "시설유형": null, "시간": null, "구분": null }, "geometry": { "type": "Point", "coordinates": [ 126.830364766072378, 35.114478409430461 ] } },
{ "type": "Feature", "properties": { "시설명": "화개경로당(서창동)", "주소": "광주광역시 서구  화개길  24-11  (매월동)", "시설유형": null, "시간": null, "구분": null }, "geometry": { "type": "Point", "coordinates": [ 126.857003720762719, 35.120910573258506 ] } },
{ "type": "Feature", "properties": { "시설명": "중촌경로당(서창동)", "주소": "광주광역시 서구  서창길  16-1  (서창동)", "시설유형": null, "시간": null, "구분": null }, "geometry": { "type": "Point", "coordinates": [ 126.821169176776309, 35.107502865793741 ] } },
{ "type": "Feature", "properties": { "시설명": "학두경로당(서창동)", "주소": "광주광역시 서구  학두마을길  12 , 학두경로당 (벽진동)", "시설유형": null, "시간": null, "구분": null }, "geometry": { "type": "Point", "coordinates": [ 126.832343584176215, 35.131915562079961 ] } },
{ "type": "Feature", "properties": { "시설명": "광주은행 매월동지점(서창동)", "주소": "광주광역시 서구 매월4로 34", "시설유형": null, "시간": null, "구분": null }, "geometry": { "type": "Point", "coordinates": [ 126.859758260668443, 35.115729634312792 ] } },
{ "type": "Feature", "properties": { "시설명": "자활경로당(서창동)", "주소": "광주광역시 서구  월암신기길  100-21  (마륵동)", "시설유형": null, "시간": null, "구분": null }, "geometry": { "type": "Point", "coordinates": [ 126.846474327803008, 35.138386392843401 ] } },
{ "type": "Feature", "properties": { "시설명": "마륵경로당(서창동)", "주소": "광주광역시 서구  원마륵2길  11 , 원마륵마을회관 (마륵동)", "시설유형": null, "시간": null, "구분": null }, "geometry": { "type": "Point", "coordinates": [ 126.837227630251917, 35.145014327699599 ] } },
{ "type": "Feature", "properties": { "시설명": "원마륵경로당(서창동)", "주소": "광주광역시 서구  마륵로  49 , 마륵동회관 (마륵동)", "시설유형": null, "시간": null, "구분": null }, "geometry": { "type": "Point", "coordinates": [ 126.837252596267305, 35.144284889999099 ] } },
{ "type": "Feature", "properties": { "시설명": "상무자이경로당(서창동)", "주소": "광주광역시 서구  백석길  22-23  (마륵동, 상무자이)", "시설유형": null, "시간": null, "구분": null }, "geometry": { "type": "Point", "coordinates": [ 126.852531921274277, 35.1420316172753 ] } },
{ "type": "Feature", "properties": { "시설명": "상무한신휴플러스@경로당(서창", "주소": "광주광역시 서구  마륵복개로  98   (마륵동, 마륵동 한신휴플러스)", "시설유형": null, "시간": null, "구분": null }, "geometry": { "type": "Point", "coordinates": [ 126.851045577277347, 35.145332863075282 ] } },
{ "type": "Feature", "properties": { "시설명": "구룡(용두)경로당(서창동)", "주소": "광주광역시 서구  용두길  119   (용두동)", "시설유형": null, "시간": null, "구분": null }, "geometry": { "type": "Point", "coordinates": [ 126.812163167890617, 35.094075285710176 ] } },
{ "type": "Feature", "properties": { "시설명": "마산경로당(서창동)", "주소": "광주광역시 서구  눌재로  573   (벽진동)", "시설유형": null, "시간": null, "구분": null }, "geometry": { "type": "Point", "coordinates": [ 126.830791870726813, 35.128202559953223 ] } },
{ "type": "Feature", "properties": { "시설명": "광주은행 만호마재지점(금호1동)", "주소": "광주광역시 서구 금화로 23", "시설유형": null, "시간": null, "구분": null }, "geometry": { "type": "Point", "coordinates": [ 126.851424472614099, 35.132306205973634 ] } },
{ "type": "Feature", "properties": { "시설명": "금호일신아파트경로당(금호1동)", "주소": "광주광역시 서구 운천로 69", "시설유형": null, "시간": null, "구분": null }, "geometry": { "type": "Point", "coordinates": [ 126.857801593588476, 35.13884055871403 ] } },
{ "type": "Feature", "properties": { "시설명": "진흥더루벤스경로당(금호1동)", "주소": "광주광역시 서구  금화로  59   (금호동)", "시설유형": null, "시간": null, "구분": null }, "geometry": { "type": "Point", "coordinates": [ 126.855422900839201, 35.1322573568415 ] } },
{ "type": "Feature", "properties": { "시설명": "쌍용예가아파트경로당(금호1동", "주소": "광주광역시 서구  금화로  25   (금호동, 금호동 쌍용예가 만호마을)", "시설유형": null, "시간": null, "구분": null }, "geometry": { "type": "Point", "coordinates": [ 126.853660385925878, 35.133795743018958 ] } },
{ "type": "Feature", "properties": { "시설명": "금호무지개경로당(금호1동)", "주소": "광주광역시 서구  운천로  54   (금호동, 해광대덕 무지개아파트)", "시설유형": null, "시간": null, "구분": null }, "geometry": { "type": "Point", "coordinates": [ 126.859213164811806, 35.137307103016504 ] } },
{ "type": "Feature", "properties": { "시설명": "코아루아파트경로당(금호1동)", "주소": "광주광역시 서구  금호운천길  41   (금호동, 금호동 코아루)", "시설유형": null, "시간": null, "구분": null }, "geometry": { "type": "Point", "coordinates": [ 126.855995027816306, 35.138422628918278 ] } },
{ "type": "Feature", "properties": { "시설명": "금호경로당(금호1동)", "주소": "광주광역시 서구  금화로73번길  32 , 금부 노인의 집 (금호동)", "시설유형": null, "시간": null, "구분": null }, "geometry": { "type": "Point", "coordinates": [ 126.856946320965221, 35.135000580716081 ] } },
{ "type": "Feature", "properties": { "시설명": "한국아파트경로당(금호1동)", "주소": "광주광역시 서구  운천로  58   (금호동, 한국아파트)", "시설유형": null, "시간": null, "구분": null }, "geometry": { "type": "Point", "coordinates": [ 126.859142261848689, 35.13786892171489 ] } },
{ "type": "Feature", "properties": { "시설명": "도시공사1단지경로당(금호1동", "주소": "광주광역시 서구  금화로115번길  12   (금호동, 금호2지구 도개공1단지아파트)", "시설유형": null, "시간": null, "구분": null }, "geometry": { "type": "Point", "coordinates": [ 126.861952498571625, 35.133058955987167 ] } },
{ "type": "Feature", "properties": { "시설명": "우미호반경로당(금호1동)", "주소": "광주광역시 서구  운천로  61   (금호동, 금호동 우미호반아파트)", "시설유형": null, "시간": null, "구분": null }, "geometry": { "type": "Point", "coordinates": [ 126.858158060908579, 35.137831757684502 ] } },
{ "type": "Feature", "properties": { "시설명": "시영금호경로당(3단지,금호1", "주소": "광주광역시 서구  운천로32번길  23   (금호동, 금호시영3단지아파트)", "시설유형": null, "시간": null, "구분": null }, "geometry": { "type": "Point", "coordinates": [ 126.862067412373747, 35.136500955435956 ] } },
{ "type": "Feature", "properties": { "시설명": "서당골모아아파트경로당(금호1", "주소": "광주광역시 서구  금화로149번길  27   (금호동, 모아아파트)", "시설유형": null, "시간": null, "구분": null }, "geometry": { "type": "Point", "coordinates": [ 126.862671352195008, 35.135306391100791 ] } },
{ "type": "Feature", "properties": { "시설명": "금호1동 주민센터", "주소": "광주광역시 서구 운천로31번길 17", "시설유형": null, "시간": null, "구분": null }, "geometry": { "type": "Point", "coordinates": [ 126.857148466198112, 35.135180960939834 ] } },
{ "type": "Feature", "properties": { "시설명": "금부마을한국@경로당(금호1동", "주소": "광주광역시 서구  금화로115번길  9 , 한국아파트 (금호동)", "시설유형": null, "시간": null, "구분": null }, "geometry": { "type": "Point", "coordinates": [ 126.860539147925167, 35.133904797439897 ] } },
{ "type": "Feature", "properties": { "시설명": "금호3차호반경로당(금호1동)", "주소": "광주광역시 서구  금화로149번길  11   (금호동, 금부마을 호반리젠시빌)", "시설유형": null, "시간": null, "구분": null }, "geometry": { "type": "Point", "coordinates": [ 126.863891077011345, 35.133510631950699 ] } },
{ "type": "Feature", "properties": { "시설명": "금호라인경로당(금호1동)", "주소": "광주광역시 서구  운천로  76   (금호동, 금호동 라인아파트)", "시설유형": null, "시간": null, "구분": null }, "geometry": { "type": "Point", "coordinates": [ 126.859127156024073, 35.139345081540846 ] } },
{ "type": "Feature", "properties": { "시설명": "금호명지경로당(금호1동)", "주소": "광주광역시 서구  운천로  69   (금호동, 금호동 일신명지아파트)", "시설유형": null, "시간": null, "구분": null }, "geometry": { "type": "Point", "coordinates": [ 126.857801593588476, 35.13884055871403 ] } },
{ "type": "Feature", "properties": { "시설명": "금호시영경로당(1단지)(금호1동)", "주소": "광주광역시 서구  운천로  41   (금호동, 금호시영1단지아파트)", "시설유형": null, "시간": null, "구분": null }, "geometry": { "type": "Point", "coordinates": [ 126.858275817223884, 35.136239017751294 ] } },
{ "type": "Feature", "properties": { "시설명": "금호시영일반분양경로당(금호1", "주소": "광주광역시 서구  운천로32번길  7   (금호동, 금호시영일반분양아파트)", "시설유형": null, "시간": null, "구분": null }, "geometry": { "type": "Point", "coordinates": [ 126.860239405506377, 35.136748000024767 ] } },
{ "type": "Feature", "properties": { "시설명": "도시공사2단지@경로당(금호1", "주소": "광주광역시 서구  금화로115번길  23   (금호동, 금호2지구도시공사2단지아파트)", "시설유형": null, "시간": null, "구분": null }, "geometry": { "type": "Point", "coordinates": [ 126.860673787772157, 35.134845711364825 ] } },
{ "type": "Feature", "properties": { "시설명": "삼능공간경로당(금호1동)", "주소": "광주광역시 서구  운천로56번길  19   (금호동, 금호동 삼능공간아파트)", "시설유형": null, "시간": null, "구분": null }, "geometry": { "type": "Point", "coordinates": [ 126.86124868792507, 35.138440833289025 ] } },
{ "type": "Feature", "properties": { "시설명": "아델리움로제비앙 아파트 경로당", "주소": "광주광역시 서구 화개중앙로87번길 15", "시설유형": null, "시간": null, "구분": null }, "geometry": { "type": "Point", "coordinates": [ 126.850302140490612, 35.126471066348046 ] } },
{ "type": "Feature", "properties": { "시설명": "로렌시아아파트경로당(금호2동", "주소": "광주광역시 서구  화개중앙로  148   (금호동, 로렌시아)", "시설유형": null, "시간": null, "구분": null }, "geometry": { "type": "Point", "coordinates": [ 126.850973539873991, 35.131632849497144 ] } },
{ "type": "Feature", "properties": { "시설명": "진흥더블파크경로당(금호2동)", "주소": "광주광역시 서구  화개중앙로114번길  19   (금호동, 진흥더블파크)", "시설유형": null, "시간": null, "구분": null }, "geometry": { "type": "Point", "coordinates": [ 126.852836357577033, 35.128426972549093 ] } },
{ "type": "Feature", "properties": { "시설명": "금호베스트빌경로당(금호2동)", "주소": "광주광역시 서구  화개1로78번길  18   (금호동, 금호베스트빌)", "시설유형": null, "시간": null, "구분": null }, "geometry": { "type": "Point", "coordinates": [ 126.857526849999047, 35.130242363827797 ] } },
{ "type": "Feature", "properties": { "시설명": "금호부영아파트경로당(금호2동", "주소": "광주광역시 서구  화개1로24번길  10   (금호동, 풍암부영1차아파트(마재마을))", "시설유형": null, "시간": null, "구분": null }, "geometry": { "type": "Point", "coordinates": [ 126.856842390756825, 35.125914487855503 ] } },
{ "type": "Feature", "properties": { "시설명": "호반리젠시빌경로당(금호2동)", "주소": "광주광역시 서구  화개1로  33   (금호동, 호반리젠시빌아파트)", "시설유형": null, "시간": null, "구분": null }, "geometry": { "type": "Point", "coordinates": [ 126.853931590010134, 35.12626320809278 ] } },
{ "type": "Feature", "properties": { "시설명": "종원팰리스빌경로당(금호2동)", "주소": "광주광역시 서구  화개1로  59-2  (금호동, 종원팰리스빌아파트)", "시설유형": null, "시간": null, "구분": null }, "geometry": { "type": "Point", "coordinates": [ 126.853762567898784, 35.12909051797196 ] } },
{ "type": "Feature", "properties": { "시설명": "송촌파인힐경로당(금호2동)", "주소": "광주광역시 서구  마재로  65   (금호동, 마재마을 송촌파인힐아파트)", "시설유형": null, "시간": null, "구분": null }, "geometry": { "type": "Point", "coordinates": [ 126.863862393785922, 35.132247993603805 ] } },
{ "type": "Feature", "properties": { "시설명": "마재중흥경로당(금호2동)", "주소": "광주광역시 서구  마재로  21   (금호동, 중흥아파트)", "시설유형": null, "시간": null, "구분": null }, "geometry": { "type": "Point", "coordinates": [ 126.862746693210283, 35.131755903081157 ] } },
{ "type": "Feature", "properties": { "시설명": "마재마을주은@경로당(금호2동", "주소": "광주광역시 서구  마재로  57   (금호동, 마재마을 주은아파트)", "시설유형": null, "시간": null, "구분": null }, "geometry": { "type": "Point", "coordinates": [ 126.864005664231243, 35.130977671955598 ] } },
{ "type": "Feature", "properties": { "시설명": "대주파크빌아파트경로당(금호2", "주소": "광주광역시 서구  화개1로24번길  9   (금호동, 대주파크빌아파트)", "시설유형": null, "시간": null, "구분": null }, "geometry": { "type": "Point", "coordinates": [ 126.856686543781464, 35.128442626772596 ] } },
{ "type": "Feature", "properties": { "시설명": "남양파크경로당(금호2동)", "주소": "광주광역시 서구  화개1로78번길  13   (금호동, 남양파크아파트)", "시설유형": null, "시간": null, "구분": null }, "geometry": { "type": "Point", "coordinates": [ 126.855847920502256, 35.131627042637007 ] } },
{ "type": "Feature", "properties": { "시설명": "금호5차호반경로당(금호2동)", "주소": "광주광역시 서구  화개1로78번길  8   (금호동, 금호5차 호반리젠시빌)", "시설유형": null, "시간": null, "구분": null }, "geometry": { "type": "Point", "coordinates": [ 126.856456861291889, 35.130102945170719 ] } },
{ "type": "Feature", "properties": { "시설명": "금호2동작은도서관", "주소": "광주광역시 서구 풍금로 135", "시설유형": null, "시간": null, "구분": null }, "geometry": { "type": "Point", "coordinates": [ 126.857151808720786, 35.128962437327914 ] } },
{ "type": "Feature", "properties": { "시설명": "금호2동 주민센터", "주소": "광주광역시 서구 풍금로 135", "시설유형": null, "시간": null, "구분": null }, "geometry": { "type": "Point", "coordinates": [ 126.857151808720786, 35.128962437327914 ] } },
{ "type": "Feature", "properties": { "시설명": "EG스위트빌경로당(금호2동)", "주소": "광주광역시 서구 화개중앙로87번길 16-1", "시설유형": null, "시간": null, "구분": null }, "geometry": { "type": "Point", "coordinates": [ 126.851019482022565, 35.127663944383265 ] } },
{ "type": "Feature", "properties": { "시설명": "풍암우미광장아파트경로당(풍암", "주소": "광주광역시 서구  풍암순환로  183 , 우미광장아파트 (풍암동)", "시설유형": null, "시간": null, "구분": null }, "geometry": { "type": "Point", "coordinates": [ 126.881903572916158, 35.126265833882385 ] } },
{ "type": "Feature", "properties": { "시설명": "풍암한신아파트경로당(풍암동)", "주소": "광주광역시 서구  풍암순환로  38   (풍암동, 한신아파트)", "시설유형": null, "시간": null, "구분": null }, "geometry": { "type": "Point", "coordinates": [ 126.875401864275915, 35.121883297311449 ] } },
{ "type": "Feature", "properties": { "시설명": "풍암현대아파트경로당(풍암동)", "주소": "광주광역시 서구  풍암순환로  70   (풍암동, 남양·현대아파트)", "시설유형": null, "시간": null, "구분": null }, "geometry": { "type": "Point", "coordinates": [ 126.878791415793273, 35.120421201578417 ] } },
{ "type": "Feature", "properties": { "시설명": "현대삼환아파트경로당(풍암동)", "주소": "광주광역시 서구  풍암1로  53   (풍암동, 현대·삼환아파트)", "시설유형": null, "시간": null, "구분": null }, "geometry": { "type": "Point", "coordinates": [ 126.879780487240339, 35.122680558409314 ] } },
{ "type": "Feature", "properties": { "시설명": "호반중흥아파트경로당(풍암동)", "주소": "광주광역시 서구  풍암순환로  14   (풍암동, 호반·중흥아파트)", "시설유형": null, "시간": null, "구분": null }, "geometry": { "type": "Point", "coordinates": [ 126.874998632730197, 35.124136600890829 ] } },
{ "type": "Feature", "properties": { "시설명": "운리경로당(풍암동)", "주소": "광주광역시 서구  풍암운리로7번길  5   (풍암동)", "시설유형": null, "시간": null, "구분": null }, "geometry": { "type": "Point", "coordinates": [ 126.864777832586327, 35.12289004559031 ] } },
{ "type": "Feature", "properties": { "시설명": "에스케이뷰경로당(풍암동)", "주소": "광주광역시 서구  송풍로  30   (풍암동, 에스케이뷰아파트)", "시설유형": null, "시간": null, "구분": null }, "geometry": { "type": "Point", "coordinates": [ 126.869501228801354, 35.118012530682783 ] } },
{ "type": "Feature", "properties": { "시설명": "풍암2차한국아델리움경로당", "주소": "광주광역시 서구  풍암순환로  135-1  (풍암동, 한국아델리움)", "시설유형": null, "시간": null, "구분": null }, "geometry": { "type": "Point", "coordinates": [ 126.883405753364556, 35.12270752422917 ] } },
{ "type": "Feature", "properties": { "시설명": "신암경로당(풍암동)", "주소": "광주광역시 서구  풍암2로  26   (풍암동)", "시설유형": null, "시간": null, "구분": null }, "geometry": { "type": "Point", "coordinates": [ 126.878898197692251, 35.124809266005265 ] } },
{ "type": "Feature", "properties": { "시설명": "광주은행 풍암동지점(풍암동)", "주소": "광주광역시 서구 풍암중앙로 39", "시설유형": null, "시간": null, "구분": null }, "geometry": { "type": "Point", "coordinates": [ 126.878679012742566, 35.125172233551901 ] } },
{ "type": "Feature", "properties": { "시설명": "금화경로당(풍암동) (프레스센터223호)", "주소": "광주광역시 서구 금화로 240", "시설유형": null, "시간": null, "구분": null }, "geometry": { "type": "Point", "coordinates": [ 126.874829564681505, 35.133653716652553 ] } },
{ "type": "Feature", "properties": { "시설명": "풍암모아경로당(풍암동)", "주소": "광주광역시 서구  풍암1로  20 , 풍암모아아파트 (풍암동)", "시설유형": null, "시간": null, "구분": null }, "geometry": { "type": "Point", "coordinates": [ 126.878026795638604, 35.125191885864417 ] } },
{ "type": "Feature", "properties": { "시설명": "풍암동부센트레빌경로당(풍암동", "주소": "광주광역시 서구  풍암신흥로  40   (풍암동, 동부센트레빌)", "시설유형": null, "시간": null, "구분": null }, "geometry": { "type": "Point", "coordinates": [ 126.867153184919857, 35.120105890412788 ] } },
{ "type": "Feature", "properties": { "시설명": "풍암금호1차아파트경로당(풍암", "주소": "광주광역시 서구  풍암신암로  31   (풍암동, 금호타운)", "시설유형": null, "시간": null, "구분": null }, "geometry": { "type": "Point", "coordinates": [ 126.882104068471634, 35.123931453123888 ] } },
{ "type": "Feature", "properties": { "시설명": "풍암2차부영아파트경로당(풍암", "주소": "광주광역시 서구  풍암1로  42   (풍암동, 풍암부영2차아파트(신암마을))", "시설유형": null, "시간": null, "구분": null }, "geometry": { "type": "Point", "coordinates": [ 126.878074149617277, 35.123811553384016 ] } },
{ "type": "Feature", "properties": { "시설명": "풍암2단지대주파크빌경로당", "주소": "광주광역시 서구  풍암1로  6 , 대주파크빌아파트 (풍암동)", "시설유형": null, "시간": null, "구분": null }, "geometry": { "type": "Point", "coordinates": [ 126.877420191977592, 35.126572284109351 ] } },
{ "type": "Feature", "properties": { "시설명": "풍암금호2차@경로당(풍암동)", "주소": "광주광역시 서구  풍암2로  66   (풍암동, 금호타운)", "시설유형": null, "시간": null, "구분": null }, "geometry": { "type": "Point", "coordinates": [ 126.881525665075756, 35.121370290618458 ] } },
{ "type": "Feature", "properties": { "시설명": "주은모아경로당(풍암동)", "주소": "광주광역시 서구  풍암2로  36   (풍암동, 주은모아아파트)", "시설유형": null, "시간": null, "구분": null }, "geometry": { "type": "Point", "coordinates": [ 126.88061038515491, 35.123542361730692 ] } },
{ "type": "Feature", "properties": { "시설명": "신암마을한국@경로당(풍암동)", "주소": "광주광역시 서구  풍암2로  84   (풍암동, 한국아파트)", "시설유형": null, "시간": null, "구분": null }, "geometry": { "type": "Point", "coordinates": [ 126.88126874212513, 35.119879118246175 ] } },
{ "type": "Feature", "properties": { "시설명": "새한아파트경로당(풍암동)", "주소": "광주광역시 서구  풍암순환로  54   (풍암동, 신암마을 새한센시빌아파트)", "시설유형": null, "시간": null, "구분": null }, "geometry": { "type": "Point", "coordinates": [ 126.876203211248182, 35.121528192020051 ] } },
{ "type": "Feature", "properties": { "시설명": "삼능남양아파트경로당(풍암동)", "주소": "광주광역시 서구  풍암순환로  86   (풍암동, 삼능.남양아파트)", "시설유형": null, "시간": null, "구분": null }, "geometry": { "type": "Point", "coordinates": [ 126.879790503095393, 35.119816482138539 ] } },
{ "type": "Feature", "properties": { "시설명": "금당정경로당(풍암동)", "주소": "광주광역시 서구  풍암순환로  112   (풍암동, 중흥아파트,풍암3차 대주파크빌)", "시설유형": null, "시간": null, "구분": null }, "geometry": { "type": "Point", "coordinates": [ 126.883279212171374, 35.120743362122361 ] } },
{ "type": "Feature", "properties": { "시설명": "풍암호수작은도서관", "주소": "광주광역시 서구 회재로 965", "시설유형": null, "시간": null, "구분": null }, "geometry": { "type": "Point", "coordinates": [ 126.868426490284875, 35.129204910124052 ] } },
{ "type": "Feature", "properties": { "시설명": "풍암동 주민센터", "주소": "광주광역시 서구 풍암1로 27", "시설유형": null, "시간": null, "구분": null }, "geometry": { "type": "Point", "coordinates": [ 126.878683526606636, 35.124755997342717 ] } },
{ "type": "Feature", "properties": { "시설명": "광주은행 하남로지점", "주소": "광주광역시 서구 하남대로 688", "시설유형": null, "시간": null, "구분": null }, "geometry": { "type": "Point", "coordinates": [ 126.867997625633137, 35.171481113584903 ] } },
{ "type": "Feature", "properties": { "시설명": "동천마을6단지경로당(동천동)", "주소": "광주광역시 서구  하남대로710번길  5   (동천동, 동천마을 6단지아파트)", "시설유형": null, "시간": null, "구분": null }, "geometry": { "type": "Point", "coordinates": [ 126.872331852441761, 35.171050634414641 ] } },
{ "type": "Feature", "properties": { "시설명": "호반베르디움경로당(동천동)", "주소": "광주광역시 서구  하남대로680번길  10   (동천동, 호반베르디움)", "시설유형": null, "시간": null, "구분": null }, "geometry": { "type": "Point", "coordinates": [ 126.864311953258465, 35.169288967856957 ] } },
{ "type": "Feature", "properties": { "시설명": "우미린아파트경로당(동천동)", "주소": "광주광역시 서구  하남대로710번길  20   (동천동, 우미린)", "시설유형": null, "시간": null, "구분": null }, "geometry": { "type": "Point", "coordinates": [ 126.869463087119883, 35.168495053886822 ] } },
{ "type": "Feature", "properties": { "시설명": "동천마을3단지휴먼시아경로당(동천동)", "주소": "광주광역시 서구  동천로18번길  19   (동천동, 동천마을3단지휴먼시아)", "시설유형": null, "시간": null, "구분": null }, "geometry": { "type": "Point", "coordinates": [ 126.861079145749599, 35.171137821474282 ] } },
{ "type": "Feature", "properties": { "시설명": "동천마을2휴먼시아경로당(동천", "주소": "광주광역시 서구  동천로  11   (동천동, 동천마을2단지휴먼시아)", "시설유형": null, "시간": null, "구분": null }, "geometry": { "type": "Point", "coordinates": [ 126.85730033140689, 35.169095058833229 ] } },
{ "type": "Feature", "properties": { "시설명": "동천주공1단지경로당(동천동)", "주소": "광주광역시 서구  동천로  25   (동천동, 동천마을1단지아파트)", "시설유형": null, "시간": null, "구분": null }, "geometry": { "type": "Point", "coordinates": [ 126.857697613729428, 35.17055607442682 ] } },
{ "type": "Feature", "properties": { "시설명": "동천동작은도서관", "주소": "광주광역시 서구 유림로98번길 8", "시설유형": null, "시간": null, "구분": null }, "geometry": { "type": "Point", "coordinates": [ 126.86473197145321, 35.17085265159956 ] } },
{ "type": "Feature", "properties": { "시설명": "동천동 주민센터", "주소": "광주광역시 서구 유림로98번길 8", "시설유형": null, "시간": null, "구분": null }, "geometry": { "type": "Point", "coordinates": [ 126.86473197145321, 35.17085265159956 ] } },
{ "type": "Feature", "properties": { "시설명": "광주은행 양림동지점", "주소": "광주광역시 남구 양림로 37", "시설유형": null, "시간": null, "구분": null }, "geometry": { "type": "Point", "coordinates": [ 126.912686262739797, 35.136968355801265 ] } },
{ "type": "Feature", "properties": { "시설명": "양지작은도서관", "주소": "광주광역시 남구 제중로 24-10", "시설유형": null, "시간": null, "구분": null }, "geometry": { "type": "Point", "coordinates": [ 126.915451074571962, 35.136547332001115 ] } },
{ "type": "Feature", "properties": { "시설명": "양림동역사문화작은도서관", "주소": "광주광역시 남구 백서로 94", "시설유형": null, "시간": null, "구분": null }, "geometry": { "type": "Point", "coordinates": [ 126.916423480253272, 35.140507411851459 ] } },